{
"type": "FeatureCollection",
"name": "doacoes_entregues_cras",
"crs": { "type": "name", "properties": { "name": "urn:ogc:def:crs:OGC:1.3:CRS84" } },
"features": [
{ "type": "Feature", "properties": { "fid": 1, "nome": "CRAS - ARICANDUVA", "endereco": "R. São Constancio, 457" }, "geometry": { "type": "Point", "coordinates": [ -46.5507075, -23.5614052, 0.0 ] } },
{ "type": "Feature", "properties": { "fid": 2, "nome": "CRAS - ERMELINO MATARAZZO", "endereco": "Av. Paranaguá, 1492-Ermelino Matarazzo" }, "geometry": { "type": "Point", "coordinates": [ -46.4784639, -23.4930279, 0.0 ] } },
{ "type": "Feature", "properties": { "fid": 3, "nome": "CRAS - GUAIANASES", "endereco": "Rua Caranaíba, 22 " }, "geometry": { "type": "Point", "coordinates": [ -46.409329, -23.5448481, 0.0 ] } },
{ "type": "Feature", "properties": { "fid": 4, "nome": "CRAS - LAJEADO", "endereco": "R. Cruz do Espírito Santo, 1142 C" }, "geometry": { "type": "Point", "coordinates": [ -46.4041631, -23.5355965, 0.0 ] } },
{ "type": "Feature", "properties": { "fid": 5, "nome": "CRAS - ITAIM PAULISTA", "endereco": "Rua D. João Nery, 58 - Itaim Paulista" }, "geometry": { "type": "Point", "coordinates": [ -46.4050875, -23.4955692, 0.0 ] } },
{ "type": "Feature", "properties": { "fid": 6, "nome": "CRAS - VILA CURUÇÁ", "endereco": "Av. Coca, 341" }, "geometry": { "type": "Point", "coordinates": [ -46.4268788, -23.5011998, 0.0 ] } },
{ "type": "Feature", "properties": { "fid": 7, "nome": "CRAS - ITAIM PAULISTA II", "endereco": "Rua Daniel Miller, 347" }, "geometry": { "type": "Point", "coordinates": [ -46.3898805, -23.5132717, 0.0 ] } },
{ "type": "Feature", "properties": { "fid": 8, "nome": "CRAS - CIDADE TIRADENTES", "endereco": "Rua Nascer do Sol, 529" }, "geometry": { "type": "Point", "coordinates": [ -46.4117159, -23.5892859, 0.0 ] } },
{ "type": "Feature", "properties": { "fid": 9, "nome": "CRAS - CIDADE LÍDER", "endereco": "Av.Mª Luiza Americano, 2681 " }, "geometry": { "type": "Point", "coordinates": [ -46.475007, -23.559055, 0.0 ] } },
{ "type": "Feature", "properties": { "fid": 10, "nome": "CRAS - ITAQUERA", "endereco": "Rua Fontoura Xavier, 695" }, "geometry": { "type": "Point", "coordinates": [ -46.4555097, -23.5483314, 0.0 ] } },
{ "type": "Feature", "properties": { "fid": 11, "nome": "CRAS - MOOCA", "endereco": "R. Henrique Sertório, 175, Tatuapé." }, "geometry": { "type": "Point", "coordinates": [ -46.5779236, -23.5365945, 0.0 ] } },
{ "type": "Feature", "properties": { "fid": 12, "nome": "CRAS - ARTUR ALVIM", "endereco": "R. Henrique Jacobs, 788 - Vila Santa Tereza" }, "geometry": { "type": "Point", "coordinates": [ -46.4936097, -23.5421847, 0.0 ] } },
{ "type": "Feature", "properties": { "fid": 13, "nome": "CRAS - PENHA", "endereco": "R. Rodovalho Jr, 676, Penha" }, "geometry": { "type": "Point", "coordinates": [ -46.5488547, -23.5202383, 0.0 ] } },
{ "type": "Feature", "properties": { "fid": 14, "nome": "CRAS - IGUATEMI", "endereco": "R. Jorge Barros, 88\/92. Jd. Roseli" }, "geometry": { "type": "Point", "coordinates": [ -46.441370194508458, -23.595636699471505, 0.0 ] } },
{ "type": "Feature", "properties": { "fid": 15, "nome": "CRAS - SÃO MATEUS", "endereco": "Rua Elísio Ferreira, 519" }, "geometry": { "type": "Point", "coordinates": [ -46.476873999264924, -23.608560983823217, 0.0 ] } },
{ "type": "Feature", "properties": { "fid": 16, "nome": "CRAS - SÃO MIGUEL", "endereco": "Rua Dr. José Guilherme Eiras, 182 – São Miguel Pta." }, "geometry": { "type": "Point", "coordinates": [ -46.4394874, -23.4973951, 0.0 ] } },
{ "type": "Feature", "properties": { "fid": 17, "nome": "CRAS - VILA PRUDENTE II", "endereco": "R.Padre Damião, 102" }, "geometry": { "type": "Point", "coordinates": [ -46.5853421, -23.5817689, 0.0 ] } },
{ "type": "Feature", "properties": { "fid": 18, "nome": "CRAS - VILA PRUDENTE \/SAPOPEMBA", "endereco": "R. Benedito Jacinto Mendes, 54, Jd. Grimaldi." }, "geometry": { "type": "Point", "coordinates": [ -46.5163491, -23.5985123, 0.0 ] } },
{ "type": "Feature", "properties": { "fid": 19, "nome": "CRAS - CAMPO LIMPO", "endereco": "R. Batista Crespo, 321, Jd. Pirajussara." }, "geometry": { "type": "Point", "coordinates": [ -46.7717155, -23.6335842, 0.0 ] } },
{ "type": "Feature", "properties": { "fid": 20, "nome": "CRAS - CAPÃO REDONDO", "endereco": "Rua Roberto Sampaio Ferreira, 233" }, "geometry": { "type": "Point", "coordinates": [ -46.7622381, -23.6584714, 0.0 ] } },
{ "type": "Feature", "properties": { "fid": 21, "nome": "CRAS - VILA ANDRADE", "endereco": "Rua General João P. de Oliveira, 26 – Jardim Morumbi" }, "geometry": { "type": "Point", "coordinates": [ -46.7217077, -23.6124053, 0.0 ] } },
{ "type": "Feature", "properties": { "fid": 22, "nome": "CRAS - CAPELA DO SOCORRO", "endereco": "Avenida Interlagos, 5.980 - Interlagos" }, "geometry": { "type": "Point", "coordinates": [ -46.7011941, -23.698595, 0.0 ] } },
{ "type": "Feature", "properties": { "fid": 23, "nome": "CRAS - GRAJAÚ", "endereco": "Rua Ezequiel Lopes Cardoso, 333" }, "geometry": { "type": "Point", "coordinates": [ -46.6879266, -23.7483682, 0.0 ] } },
{ "type": "Feature", "properties": { "fid": 24, "nome": "CRAS - CIDADE ADEMAR", "endereco": "Av. Cupecê, 2278" }, "geometry": { "type": "Point", "coordinates": [ -46.6626318, -23.6623748, 0.0 ] } },
{ "type": "Feature", "properties": { "fid": 25, "nome": "CRAS - PEDREIRA", "endereco": "Estrada do Alvarenga, 3657" }, "geometry": { "type": "Point", "coordinates": [ -46.6441515, -23.7031907, 0.0 ] } },
{ "type": "Feature", "properties": { "fid": 26, "nome": "CRAS - CIDADE ADEMAR II", "endereco": "Avenida Cupecê, 5699" }, "geometry": { "type": "Point", "coordinates": [ -46.6363806, -23.6820265, 0.0 ] } },
{ "type": "Feature", "properties": { "fid": 27, "nome": "CRAS - IPIRANGA", "endereco": "Rua Taquarichim, 290 - Vila Vera" }, "geometry": { "type": "Point", "coordinates": [ -46.6027842, -23.6206852, 0.0 ] } },
{ "type": "Feature", "properties": { "fid": 28, "nome": "CRAS - JABAQUARA", "endereco": "Rua dos Jornalistas, 48, Cidade Vargas" }, "geometry": { "type": "Point", "coordinates": [ -46.6388677, -23.64396, 0.0 ] } },
{ "type": "Feature", "properties": { "fid": 29, "nome": "CRAS - M'BOI MIRIM", "endereco": "R. Manuel Vieira Sarmento, 26" }, "geometry": { "type": "Point", "coordinates": [ -46.7510226, -23.6718259, 0.0 ] } },
{ "type": "Feature", "properties": { "fid": 30, "nome": "CRAS - JARDIM ANGELA", "endereco": "Rua Luiz Baldinato, nº 150 " }, "geometry": { "type": "Point", "coordinates": [ -46.7687274, -23.6835436, 0.0 ] } },
{ "type": "Feature", "properties": { "fid": 31, "nome": "CRAS - JARDIM SÃO LUIS", "endereco": "Rua José Manoel Camisa Nova, 100 " }, "geometry": { "type": "Point", "coordinates": [ -46.7482832, -23.6627307, 0.0 ] } },
{ "type": "Feature", "properties": { "fid": 32, "nome": "CRAS - PARELHEIROS", "endereco": "Rua Pedro Klein do Nascimento, 100 - Parelheiros" }, "geometry": { "type": "Point", "coordinates": [ -46.730330911925599, -23.828350356433795, 0.0 ] } },
{ "type": "Feature", "properties": { "fid": 33, "nome": "CRAS-MARSILAC", "endereco": "Rua Henrique Silva, 68" }, "geometry": { "type": "Point", "coordinates": [ -46.706582554041532, -23.906878836048268, 0.0 ] } },
{ "type": "Feature", "properties": { "fid": 34, "nome": "CRAS - PINHEIROS", "endereco": "R. Mourato Coelho,106, Pinheiros" }, "geometry": { "type": "Point", "coordinates": [ -46.6857511, -23.5658617, 0.0 ] } },
{ "type": "Feature", "properties": { "fid": 35, "nome": "CRAS - SANTO AMARO", "endereco": "Rua Padre José de Anchieta, 802" }, "geometry": { "type": "Point", "coordinates": [ -46.7016479, -23.650341, 0.0 ] } },
{ "type": "Feature", "properties": { "fid": 36, "nome": "CRAS - VILA MARIANA", "endereco": "Rua Professor Ascendino Reis, 830 - CEP 04027-000 - Vila Clementino" }, "geometry": { "type": "Point", "coordinates": [ -46.6512587, -23.5983227, 0.0 ] } },
{ "type": "Feature", "properties": { "fid": 37, "nome": "CRAS - CACHOEIRINHA", "endereco": "Av. Imirim, 4328, V. Nova Cachoeirinha." }, "geometry": { "type": "Point", "coordinates": [ -46.6647063, -23.4751679, 0.0 ] } },
{ "type": "Feature", "properties": { "fid": 38, "nome": "CRAS - CASA VERDE", "endereco": "Av. Eng. Caetano Alvares, 3054, Casa Verde" }, "geometry": { "type": "Point", "coordinates": [ -46.6567155, -23.4922817, 0.0 ] } },
{ "type": "Feature", "properties": { "fid": 39, "nome": "CRAS - JAÇANÃ", "endereco": "Av. Guapira, 2145, Jaçanã." }, "geometry": { "type": "Point", "coordinates": [ -46.5860508, -23.4706872, 0.0 ] } },
{ "type": "Feature", "properties": { "fid": 40, "nome": "CRAS - TREMEMBÉ", "endereco": "Av. Mario Pernambuco, 43, Vila Mazzei" }, "geometry": { "type": "Point", "coordinates": [ -46.5964934, -23.4640793, 0.0 ] } },
{ "type": "Feature", "properties": { "fid": 41, "nome": "CRAS - LAPA", "endereco": "R. Caio Gracco, 421" }, "geometry": { "type": "Point", "coordinates": [ -46.6942369, -23.526564, 0.0 ] } },
{ "type": "Feature", "properties": { "fid": 42, "nome": "CRAS - SANTANA", "endereco": "Av. Voluntários da Pátria, 4649, Mandaqui." }, "geometry": { "type": "Point", "coordinates": [ -46.6322026, -23.4811666, 0.0 ] } },
{ "type": "Feature", "properties": { "fid": 43, "nome": "CRAS - VILA MARIA", "endereco": "Rua Professor Ascendino Reis, 830 - CEP 04027-000 - Vila Clementino" }, "geometry": { "type": "Point", "coordinates": [ -46.6512587, -23.5983227, 0.0 ] } },
{ "type": "Feature", "properties": { "fid": 44, "nome": "CRAS - VILA MEDEIROS", "endereco": "Av. Gustavo Adolfo, nº 2202-Vila Medeiros" }, "geometry": { "type": "Point", "coordinates": [ -46.5800692, -23.487982, 0.0 ] } },
{ "type": "Feature", "properties": { "fid": 45, "nome": "CRAS - BUTANTÃ", "endereco": "R. Junta Mizumoto, 591" }, "geometry": { "type": "Point", "coordinates": [ -46.7378059, -23.5893354, 0.0 ] } },
{ "type": "Feature", "properties": { "fid": 46, "nome": "CRAS - BRASILÂNDIA I", "endereco": "Rua Barão de Santo Angelo, 147" }, "geometry": { "type": "Point", "coordinates": [ -46.6888609, -23.4747361, 0.0 ] } },
{ "type": "Feature", "properties": { "fid": 47, "nome": "CRAS - BRASILÂNDIA II", "endereco": "Av. Itaberaba, 3666, J. Elisa Maria" }, "geometry": { "type": "Point", "coordinates": [ -46.6815691, -23.4777394, 0.0 ] } },
{ "type": "Feature", "properties": { "fid": 48, "nome": "CRAS - BRASILÂNDIA III", "endereco": "R. Ibiraiaras, 372, Jd. Vista Alegre." }, "geometry": { "type": "Point", "coordinates": [ -46.6878725, -23.4505943, 0.0 ] } },
{ "type": "Feature", "properties": { "fid": 49, "nome": "CRAS - FREGUESIA DO Ó", "endereco": "Av. Itaberaba, 924, Freguesia do Ó" }, "geometry": { "type": "Point", "coordinates": [ -46.6965127, -23.4933564, 0.0 ] } },
{ "type": "Feature", "properties": { "fid": 50, "nome": "CRAS - ANHANGUERA", "endereco": "R. São Constancio, 457" }, "geometry": { "type": "Point", "coordinates": [ -46.5507075, -23.5614052, 0.0 ] } },
{ "type": "Feature", "properties": { "fid": 51, "nome": "CRAS - PERUS", "endereco": "R. Padre Manuel Campello, 40, Perus." }, "geometry": { "type": "Point", "coordinates": [ -46.7551166, -23.4054114, 0.0 ] } },
{ "type": "Feature", "properties": { "fid": 52, "nome": "CRAS - JARAGUÁ", "endereco": "R. Barra da Forquilha, 300, Pq. Panamericano" }, "geometry": { "type": "Point", "coordinates": [ -46.7301103, -23.4509492, 0.0 ] } },
{ "type": "Feature", "properties": { "fid": 53, "nome": "CRAS - PIRITUBA", "endereco": "R. Guerino Giovani Leardini, 290" }, "geometry": { "type": "Point", "coordinates": [ -46.7217987, -23.4857676, 0.0 ] } },
{ "type": "Feature", "properties": { "fid": 54, "nome": "CRAS - SÉ", "endereco": "Av. Tiradentes, 749, Bom Retiro." }, "geometry": { "type": "Point", "coordinates": [ -46.6321117, -23.5289905, 0.0 ] } }
]
}
