<?xml version="1.0" encoding="utf-8" ?>
<kml xmlns="http://www.opengis.net/kml/2.2">
<Document id="id">
<Schema name="doacoes_entregues" id="doacoes_entregues">
	<SimpleField name="Name" type="string"></SimpleField>
	<SimpleField name="Description" type="string"></SimpleField>
	<SimpleField name="ENDERECO" type="string"></SimpleField>
	<SimpleField name="id" type="string"></SimpleField>
</Schema>
<Folder><name>doacoes_entregues</name>
  <Placemark>
	<name>Bairro Jardim Santo Andr? e Jardim S?o Francisco</name>
	<description>Entidade</description>
	<ExtendedData><SchemaData schemaUrl="#doacoes_entregues">
		<SimpleData name="ENDERECO">Avenida Dos sertanistas, 200, Jardim Santo Andr?</SimpleData>
		<SimpleData name="id">301868</SimpleData>
	</SchemaData></ExtendedData>
      <Point><coordinates>-46.4467261249213,-23.6243463205442</coordinates></Point>
  </Placemark>
  <Placemark>
	<name>Bairros do Cap?o Redondo</name>
	<description>Entidade</description>
	<ExtendedData><SchemaData schemaUrl="#doacoes_entregues">
		<SimpleData name="ENDERECO">Rua do Soneto da Fidelidade 14. Jardim Maraca</SimpleData>
		<SimpleData name="id">301975</SimpleData>
	</SchemaData></ExtendedData>
      <Point><coordinates>-46.7649089592994,-23.6714736010013</coordinates></Point>
  </Placemark>
  <Placemark>
	<name>Rua da safra 415</name>
	<description>Entidade</description>
	<ExtendedData><SchemaData schemaUrl="#doacoes_entregues">
		<SimpleData name="ENDERECO">Rua da safra, 415, Conjunto Habitacional Instituto Adventista</SimpleData>
		<SimpleData name="id">301871</SimpleData>
	</SchemaData></ExtendedData>
      <Point><coordinates>-46.7818850982203,-23.6705295469393</coordinates></Point>
  </Placemark>
  <Placemark>
	<name>Varginha, Parelheiros, Graja?, Jardim Herplin e Pa</name>
	<description>Entidade</description>
	<ExtendedData><SchemaData schemaUrl="#doacoes_entregues">
		<SimpleData name="ENDERECO">Rua Windsor, 10, Jardim do Alto - S?o Paulo</SimpleData>
		<SimpleData name="id">301899</SimpleData>
	</SchemaData></ExtendedData>
      <Point><coordinates>-46.6961825622447,-23.7231790333945</coordinates></Point>
  </Placemark>
  <Placemark>
	<name>Conjunto Habitacional In?cio Monteiro, Cohab Jucel</name>
	<description>Entidade</description>
	<ExtendedData><SchemaData schemaUrl="#doacoes_entregues">
		<SimpleData name="ENDERECO">Rua Igarap? Santa Cruz, 32 Conjunto Habitacional Inacio Monteiro</SimpleData>
		<SimpleData name="id">301915</SimpleData>
	</SchemaData></ExtendedData>
      <Point><coordinates>-46.4025485607943,-23.5682381960867</coordinates></Point>
  </Placemark>
  <Placemark>
	<name>Jardim Paquet?  - Zona Norte</name>
	<description>Entidade</description>
	<ExtendedData><SchemaData schemaUrl="#doacoes_entregues">
		<SimpleData name="ENDERECO">Rua Maria Hilda Prudente Teixeira, 44. Conj. Hab. Nova Uni?o. Jardim Bras?lia</SimpleData>
		<SimpleData name="id">300907</SimpleData>
	</SchemaData></ExtendedData>
      <Point><coordinates>-46.7182578855885,-23.4729618489477</coordinates></Point>
  </Placemark>
  <Placemark>
	<name>Vila Silvia - S?o Paulo - SP</name>
	<description>Entidade</description>
	<ExtendedData><SchemaData schemaUrl="#doacoes_entregues">
		<SimpleData name="ENDERECO">Rua Serra Verde, 91 - Vila Silvia</SimpleData>
		<SimpleData name="id">300901</SimpleData>
	</SchemaData></ExtendedData>
      <Point><coordinates>-46.5031861482572,-23.4923835614257</coordinates></Point>
  </Placemark>
  <Placemark>
	<name>Comunidades no Cangaiba/SP e Ermelino Matarazzo/SP</name>
	<description>Entidade</description>
	<ExtendedData><SchemaData schemaUrl="#doacoes_entregues">
		<SimpleData name="ENDERECO">Rua Doutor Flamiano Costa, 582 - Jardim Penha</SimpleData>
		<SimpleData name="id">301060</SimpleData>
	</SchemaData></ExtendedData>
      <Point><coordinates>-46.4923730904516,-23.502073636552</coordinates></Point>
  </Placemark>
  <Placemark>
	<name>Jd S?o Paulo, comunidade da Igreja Extreme em Guai</name>
	<description>Entidade</description>
	<ExtendedData><SchemaData schemaUrl="#doacoes_entregues">
		<SimpleData name="ENDERECO">Av. Miguel Achiole da Fonseca, 399 - Jardim S?o Paulo (Zona Leste), S?o Paulo - SP</SimpleData>
		<SimpleData name="id">300963</SimpleData>
	</SchemaData></ExtendedData>
      <Point><coordinates>-46.4020135078431,-23.5540611336088</coordinates></Point>
  </Placemark>
  <Placemark>
	<name>Corti?os e Ocupa??es do Centro da cidade S?o Paulo</name>
	<description>Entidade</description>
	<ExtendedData><SchemaData schemaUrl="#doacoes_entregues">
		<SimpleData name="ENDERECO">Rua Vicente Prado, 93 - Bela Vista - S?o Paulo/SP</SimpleData>
		<SimpleData name="id">300976</SimpleData>
	</SchemaData></ExtendedData>
      <Point><coordinates>-46.6412705272272,-23.5566454490905</coordinates></Point>
  </Placemark>
  <Placemark>
	<name>Favela de cidade Tiradentes,  Favela Tijuco Preto,</name>
	<description>Entidade</description>
	<ExtendedData><SchemaData schemaUrl="#doacoes_entregues">
		<SimpleData name="ENDERECO">Rua Oriente, 505 - Galeria - Loja 2 - Br?s</SimpleData>
		<SimpleData name="id">300884</SimpleData>
	</SchemaData></ExtendedData>
      <Point><coordinates>-46.6250893796562,-23.5531924807626</coordinates></Point>
  </Placemark>
  <Placemark>
	<name>Jd Colonial S?o Mateus e adjacentes</name>
	<description>Entidade</description>
	<ExtendedData><SchemaData schemaUrl="#doacoes_entregues">
		<SimpleData name="ENDERECO">Avenida Francisco de Santa Maria, 1256 - Jardim Colonial</SimpleData>
		<SimpleData name="id">300936</SimpleData>
	</SchemaData></ExtendedData>
      <Point><coordinates>-46.4731982923365,-23.6082111707852</coordinates></Point>
  </Placemark>
  <Placemark>
	<name>Atendemos diversas fam?lias na regi?o do Cap?o Red</name>
	<description>Entidade</description>
	<ExtendedData><SchemaData schemaUrl="#doacoes_entregues">
		<SimpleData name="ENDERECO">Rua Felipe Carillo Puerto, 96</SimpleData>
		<SimpleData name="id">300920</SimpleData>
	</SchemaData></ExtendedData>
      <Point><coordinates>-46.7843351059318,-23.6668305232597</coordinates></Point>
  </Placemark>
  <Placemark>
	<name>JD Magdalena e Parque Fernanda</name>
	<description>Entidade</description>
	<ExtendedData><SchemaData schemaUrl="#doacoes_entregues">
		<SimpleData name="ENDERECO">Rua Serafim Ponte Grande, 167 - Jardim Am?lia</SimpleData>
		<SimpleData name="id">301096</SimpleData>
	</SchemaData></ExtendedData>
      <Point><coordinates>-46.790322160507,-23.6681135113923</coordinates></Point>
  </Placemark>
  <Placemark>
	<name>S?o  paulo</name>
	<description>Entidade</description>
	<ExtendedData><SchemaData schemaUrl="#doacoes_entregues">
		<SimpleData name="ENDERECO">Rua projeta n?mero 27 ch?cara  Bananal Vila calu</SimpleData>
		<SimpleData name="id">300863</SimpleData>
	</SchemaData></ExtendedData>
      <Point><coordinates>-46.7897972036081,-23.7394580304392</coordinates></Point>
  </Placemark>
  <Placemark>
	<name>Jardim Aracati, Chacara Bandeirantes, Favela Muric</name>
	<description>Entidade</description>
	<ExtendedData><SchemaData schemaUrl="#doacoes_entregues">
		<SimpleData name="ENDERECO">Rua Licinio Felini, 97, Ch?cara Fl?rida</SimpleData>
		<SimpleData name="id">300959</SimpleData>
	</SchemaData></ExtendedData>
      <Point><coordinates>-46.7735762279102,-23.728005827276</coordinates></Point>
  </Placemark>
  <Placemark>
	<name>RUAS PAINEIRA REIMBERG, RUA JATOB? REIMBERG, RUA F</name>
	<description>Entidade</description>
	<ExtendedData><SchemaData schemaUrl="#doacoes_entregues">
		<SimpleData name="ENDERECO">RUA JATOB? REIMBERG, 1C</SimpleData>
		<SimpleData name="id">300950</SimpleData>
	</SchemaData></ExtendedData>
      <Point><coordinates>-46.6878436053298,-23.7557652031297</coordinates></Point>
  </Placemark>
  <Placemark>
	<name>Comunidade do Parque Cocaia</name>
	<description>Entidade</description>
	<ExtendedData><SchemaData schemaUrl="#doacoes_entregues">
		<SimpleData name="ENDERECO">Rua Ad?lia da Silva Mendes, 706 - Parque Cocaia</SimpleData>
		<SimpleData name="id">301012</SimpleData>
	</SchemaData></ExtendedData>
      <Point><coordinates>-46.6805115335528,-23.7528172115641</coordinates></Point>
  </Placemark>
  <Placemark>
	<name>Jardim Novo Parelheiros</name>
	<description>Entidade</description>
	<ExtendedData><SchemaData schemaUrl="#doacoes_entregues">
		<SimpleData name="ENDERECO">Rua Mariana Lu?sa de Jesus, 350 - Jardim Novo Paralheiros - Cep: 04890.530</SimpleData>
		<SimpleData name="id">300991</SimpleData>
	</SchemaData></ExtendedData>
      <Point><coordinates>-46.726548209586,-23.8360234458861</coordinates></Point>
  </Placemark>
  <Placemark>
	<name>S?o Paulo</name>
	<description>Entidade</description>
	<ExtendedData><SchemaData schemaUrl="#doacoes_entregues">
		<SimpleData name="ENDERECO">Largo Do Paissand?, 132, CJ 22, Centro</SimpleData>
		<SimpleData name="id">300874</SimpleData>
	</SchemaData></ExtendedData>
      <Point><coordinates>-46.6542729618056,-23.6512418350482</coordinates></Point>
  </Placemark>
  <Placemark>
	<name>PERUS</name>
	<description>Entidade</description>
	<ExtendedData><SchemaData schemaUrl="#doacoes_entregues">
		<SimpleData name="ENDERECO">RUA CANAD? N?73 - JARDIM DA CONQUISTA - S?O PAULO - SP</SimpleData>
		<SimpleData name="id">300966</SimpleData>
	</SchemaData></ExtendedData>
      <Point><coordinates>-46.7464649277037,-23.4162015117505</coordinates></Point>
  </Placemark>
  <Placemark>
	<name>Comunidade Fazenda da Juta</name>
	<description>Entidade</description>
	<ExtendedData><SchemaData schemaUrl="#doacoes_entregues">
		<SimpleData name="ENDERECO">Rua Augostin Lubert, 1053</SimpleData>
		<SimpleData name="id">301005</SimpleData>
	</SchemaData></ExtendedData>
      <Point><coordinates>-46.4910004906685,-23.6223611825656</coordinates></Point>
  </Placemark>
  <Placemark>
	<name>Comunidade</name>
	<description>Entidade</description>
	<ExtendedData><SchemaData schemaUrl="#doacoes_entregues">
		<SimpleData name="ENDERECO">Rua Tenente Godofredo Cerqueira Leite,300- Mascarenhas de Moraes</SimpleData>
		<SimpleData name="id">301007</SimpleData>
	</SchemaData></ExtendedData>
      <Point><coordinates>-46.4981305322257,-23.6169991376628</coordinates></Point>
  </Placemark>
  <Placemark>
	<name>Jardim Maraba e adjacentes</name>
	<description>Entidade</description>
	<ExtendedData><SchemaData schemaUrl="#doacoes_entregues">
		<SimpleData name="ENDERECO">Rua Santa Marcelina, 991, Vila Carmosina</SimpleData>
		<SimpleData name="id">300071</SimpleData>
	</SchemaData></ExtendedData>
      <Point><coordinates>-46.4592340983059,-23.5608791332421</coordinates></Point>
  </Placemark>
  <Placemark>
	<name>Av m boi Gua?u n?mero 622 cep 04949_000</name>
	<description>Entidade</description>
	<ExtendedData><SchemaData schemaUrl="#doacoes_entregues">
		<SimpleData name="ENDERECO">Av. M'Boi Gua?u, 622</SimpleData>
		<SimpleData name="id">300431</SimpleData>
	</SchemaData></ExtendedData>
      <Point><coordinates>-46.7721346583039,-23.7202925790497</coordinates></Point>
  </Placemark>
  <Placemark>
	<name>Associa??o  unidos do jangadriro</name>
	<description>Entidade</description>
	<ExtendedData><SchemaData schemaUrl="#doacoes_entregues">
		<SimpleData name="ENDERECO">Estrada Dom Jo?o Nery, 3201 - Jardim Nazareth</SimpleData>
		<SimpleData name="id">300789</SimpleData>
	</SchemaData></ExtendedData>
      <Point><coordinates>-46.7822201691339,-23.6901906335389</coordinates></Point>
  </Placemark>
  <Placemark>
	<name>COHAB I, COHAB II, Jardim Sinh?</name>
	<description>Entidade</description>
	<ExtendedData><SchemaData schemaUrl="#doacoes_entregues">
		<SimpleData name="ENDERECO">Av Padre Estanislau de Campos, 379 - COHAB I</SimpleData>
		<SimpleData name="id">300330</SimpleData>
	</SchemaData></ExtendedData>
      <Point><coordinates>-46.4830050004906,-23.5421970012261</coordinates></Point>
  </Placemark>
  <Placemark>
	<name>S?O PAULO - FAM?LIAS CARENTES</name>
	<description>Entidade</description>
	<ExtendedData><SchemaData schemaUrl="#doacoes_entregues">
		<SimpleData name="ENDERECO">Rua Ocapeguara, 84 - Jardim Umarizal</SimpleData>
		<SimpleData name="id">300824</SimpleData>
	</SchemaData></ExtendedData>
      <Point><coordinates>-46.7578387169015,-23.6184703852187</coordinates></Point>
  </Placemark>
  <Placemark>
	<name>Favela do p?, Jd Vista Alegre,</name>
	<description>Entidade</description>
	<ExtendedData><SchemaData schemaUrl="#doacoes_entregues">
		<SimpleData name="ENDERECO">Rua Ast?rias 325, Imirim</SimpleData>
		<SimpleData name="id">300310</SimpleData>
	</SchemaData></ExtendedData>
      <Point><coordinates>-46.6564297597706,-23.4903960234119</coordinates></Point>
  </Placemark>
  <Placemark>
	<name>Associa??o</name>
	<description>Entidade</description>
	<ExtendedData><SchemaData schemaUrl="#doacoes_entregues">
		<SimpleData name="ENDERECO">Rua Francisco Correa Vasquez, 52</SimpleData>
		<SimpleData name="id">300714</SimpleData>
	</SchemaData></ExtendedData>
      <Point><coordinates>-46.715501843804,-23.7576041299249</coordinates></Point>
  </Placemark>
  <Placemark>
	<name>Jd pinheirinho 2</name>
	<description>Entidade</description>
	<ExtendedData><SchemaData schemaUrl="#doacoes_entregues">
		<SimpleData name="ENDERECO">Avenida Bento Guelf, 2280 - Jardim da Laranjeira</SimpleData>
		<SimpleData name="id">300230</SimpleData>
	</SchemaData></ExtendedData>
      <Point><coordinates>-46.4236668417436,-23.6137731665414</coordinates></Point>
  </Placemark>
  <Placemark>
	<name>Vila Jacui e  S?o Miguel</name>
	<description>Entidade</description>
	<ExtendedData><SchemaData schemaUrl="#doacoes_entregues">
		<SimpleData name="ENDERECO">Rua Pau D Arco Roxo, 167</SimpleData>
		<SimpleData name="id">300311</SimpleData>
	</SchemaData></ExtendedData>
      <Point><coordinates>-46.4650028636607,-23.5030347202995</coordinates></Point>
  </Placemark>
  <Placemark>
	<name>Vila albertina , Jardim tremembe ,Jardim S?o Jo?o</name>
	<description>Entidade</description>
	<ExtendedData><SchemaData schemaUrl="#doacoes_entregues">
		<SimpleData name="ENDERECO">Rua jose Schreittmiller, 149 - Trememb?</SimpleData>
		<SimpleData name="id">300497</SimpleData>
	</SchemaData></ExtendedData>
      <Point><coordinates>-46.6091830004911,-23.4470780012228</coordinates></Point>
  </Placemark>
  <Placemark>
	<name>Rua Lago Mandiore  n 37 a</name>
	<description>Entidade</description>
	<ExtendedData><SchemaData schemaUrl="#doacoes_entregues">
		<SimpleData name="ENDERECO">Rua Lago Mandiore, 37 A, Jardim Camrgo Novo</SimpleData>
		<SimpleData name="id">300364</SimpleData>
	</SchemaData></ExtendedData>
      <Point><coordinates>-46.3815890004976,-23.500581001234</coordinates></Point>
  </Placemark>
  <Placemark>
	<name>Favelas, igreja e todos assistidos pela institui??</name>
	<description>Entidade</description>
	<ExtendedData><SchemaData schemaUrl="#doacoes_entregues">
		<SimpleData name="ENDERECO">Rua Augusto Cavalcanti, 84, sala 02, Conjunto Habitacional Jos? Bonif?cio</SimpleData>
		<SimpleData name="id">300394</SimpleData>
	</SchemaData></ExtendedData>
      <Point><coordinates>-46.4366297693536,-23.5453219936328</coordinates></Point>
  </Placemark>
  <Placemark>
	<name>Sociedade Amigos Unidos Jd. 3 Cora??es</name>
	<description>Entidade</description>
	<ExtendedData><SchemaData schemaUrl="#doacoes_entregues">
		<SimpleData name="ENDERECO">Rua Tenente Odilon Raposo, 01</SimpleData>
		<SimpleData name="id">300630</SimpleData>
	</SchemaData></ExtendedData>
      <Point><coordinates>-46.6823255933458,-23.7656502633941</coordinates></Point>
  </Placemark>
  <Placemark>
	<name>Jd Paulistano/ Jd Carumb?/ Jd Guarani (Capad?cia,</name>
	<description>Entidade</description>
	<ExtendedData><SchemaData schemaUrl="#doacoes_entregues">
		<SimpleData name="ENDERECO">Rua Lagoa Da Serra, 82,  Garagem Jd Paulistano.</SimpleData>
		<SimpleData name="id">300514</SimpleData>
	</SchemaData></ExtendedData>
      <Point><coordinates>-46.710065100486,-23.4590221012162</coordinates></Point>
  </Placemark>
  <Placemark>
	<name>Favela do Bato, Caixa D?gua</name>
	<description>Entidade</description>
	<ExtendedData><SchemaData schemaUrl="#doacoes_entregues">
		<SimpleData name="ENDERECO">Rua Jacira Artacho, 47 - Canga?ba</SimpleData>
		<SimpleData name="id">300491</SimpleData>
	</SchemaData></ExtendedData>
      <Point><coordinates>-46.5325784423314,-23.5062055384712</coordinates></Point>
  </Placemark>
  <Placemark>
	<name>Av metalurgicos 1065 cid Tiradentes</name>
	<description>Entidade</description>
	<ExtendedData><SchemaData schemaUrl="#doacoes_entregues">
		<SimpleData name="ENDERECO">Av. Metalurgicos 1065, sl. 10, Cidade Tiradentes</SimpleData>
		<SimpleData name="id">300821</SimpleData>
	</SchemaData></ExtendedData>
      <Point><coordinates>-46.4072286804434,-23.5916932883491</coordinates></Point>
  </Placemark>
  <Placemark>
	<name>COMPLEXO IPANEMA  JARAGUA</name>
	<description>Entidade</description>
	<ExtendedData><SchemaData schemaUrl="#doacoes_entregues">
		<SimpleData name="ENDERECO">Rua Vicenti.Mazetti 128</SimpleData>
		<SimpleData name="id">300595</SimpleData>
	</SchemaData></ExtendedData>
      <Point><coordinates>-46.7491650466547,-23.4444256307919</coordinates></Point>
  </Placemark>
  <Placemark>
	<name>Jardim S?o Benedito (tubo 1 e 2) e bairros adjacen</name>
	<description>Entidade</description>
	<ExtendedData><SchemaData schemaUrl="#doacoes_entregues">
		<SimpleData name="ENDERECO">Rua Benedito Vieira da Silva, 98 - Jardim S?o Benedito</SimpleData>
		<SimpleData name="id">301249</SimpleData>
	</SchemaData></ExtendedData>
      <Point><coordinates>-46.687910477686,-23.7188070382037</coordinates></Point>
  </Placemark>
  <Placemark>
	<name>Rua Dr Juvenal Hudson Ferreira S/N? (Pra?a Pagode</name>
	<description>Entidade</description>
	<ExtendedData><SchemaData schemaUrl="#doacoes_entregues">
		<SimpleData name="ENDERECO">Rua Claudio Monte Verde n?02,  Jardim Myrna</SimpleData>
		<SimpleData name="id">301159</SimpleData>
	</SchemaData></ExtendedData>
      <Point><coordinates>-46.695750731833,-23.7730742569295</coordinates></Point>
  </Placemark>
  <Placemark>
	<name>Associa??o de Moradores do Jardim Anchieta</name>
	<description>Entidade</description>
	<ExtendedData><SchemaData schemaUrl="#doacoes_entregues">
		<SimpleData name="ENDERECO">Rua Rubens Facchini, 108 - Jardim Anchieta</SimpleData>
		<SimpleData name="id">301290</SimpleData>
	</SchemaData></ExtendedData>
      <Point><coordinates>-46.6607400673682,-23.6661018825664</coordinates></Point>
  </Placemark>
  <Placemark>
	<name>JARDIM  S?O JORGE, JARDIM DOMITILA, JARDIM S?O CAR</name>
	<description>Entidade</description>
	<ExtendedData><SchemaData schemaUrl="#doacoes_entregues">
		<SimpleData name="ENDERECO">Rua Professor Carlos Decort, 220 - Jardim S?o Jorge</SimpleData>
		<SimpleData name="id">301234</SimpleData>
	</SchemaData></ExtendedData>
      <Point><coordinates>-46.6610411377227,-23.6857309694153</coordinates></Point>
  </Placemark>
  <Placemark>
	<name>extremo sul de s?o paulo, Fund?o, vila rodrigues c</name>
	<description>Entidade</description>
	<ExtendedData><SchemaData schemaUrl="#doacoes_entregues">
		<SimpleData name="ENDERECO">Rua Maria Travezane, 26 Vila Rodrigues</SimpleData>
		<SimpleData name="id">301356</SimpleData>
	</SchemaData></ExtendedData>
      <Point><coordinates>-46.7785883172194,-23.7416238730822</coordinates></Point>
  </Placemark>
  <Placemark>
	<name>Vila natal zona sul s?o Paulo</name>
	<description>Entidade</description>
	<ExtendedData><SchemaData schemaUrl="#doacoes_entregues">
		<SimpleData name="ENDERECO">Avenida Ascaz Natal, 130 - Vila Natal</SimpleData>
		<SimpleData name="id">301324</SimpleData>
	</SchemaData></ExtendedData>
      <Point><coordinates>-46.7092148099317,-23.7630361726103</coordinates></Point>
  </Placemark>
  <Placemark>
	<name>Rua Coronel Newton Braga n 24 Jd. Jau Penha/Sp</name>
	<description>Entidade</description>
	<ExtendedData><SchemaData schemaUrl="#doacoes_entregues">
		<SimpleData name="ENDERECO">Rua Coronel Newton Braga, 24 - Jardim Jau - Penha</SimpleData>
		<SimpleData name="id">301205</SimpleData>
	</SchemaData></ExtendedData>
      <Point><coordinates>-46.543984960814,-23.5128476352783</coordinates></Point>
  </Placemark>
  <Placemark>
	<name>Estamos atendendo comunidades em vulnerabilidade n</name>
	<description>Entidade</description>
	<ExtendedData><SchemaData schemaUrl="#doacoes_entregues">
		<SimpleData name="ENDERECO">Rua Loefgrem, 1729 - Vila Clementino</SimpleData>
		<SimpleData name="id">301297</SimpleData>
	</SchemaData></ExtendedData>
      <Point><coordinates>-46.6423716851615,-23.5999256400404</coordinates></Point>
  </Placemark>
  <Placemark>
	<name>Heli?polis sp</name>
	<description>Entidade</description>
	<ExtendedData><SchemaData schemaUrl="#doacoes_entregues">
		<SimpleData name="ENDERECO">Rua do Pacificador, 288 - Heli?polis</SimpleData>
		<SimpleData name="id">301219</SimpleData>
	</SchemaData></ExtendedData>
      <Point><coordinates>-46.5891175821436,-23.612710252918</coordinates></Point>
  </Placemark>
  <Placemark>
	<name>Jd.Nardini -Pirituba</name>
	<description>Entidade</description>
	<ExtendedData><SchemaData schemaUrl="#doacoes_entregues">
		<SimpleData name="ENDERECO">Rua Jo?o Florencio Pereira, 247 - Jardim Nardini</SimpleData>
		<SimpleData name="id">301160</SimpleData>
	</SchemaData></ExtendedData>
      <Point><coordinates>-46.7599512547644,-23.4788867541346</coordinates></Point>
  </Placemark>
  <Placemark>
	<name>Favela Agua Vermelha JD.Robru Itaim Paulista  - Fa</name>
	<description>Entidade</description>
	<ExtendedData><SchemaData schemaUrl="#doacoes_entregues">
		<SimpleData name="ENDERECO">Rua Amapor? 76, Itaim paulista</SimpleData>
		<SimpleData name="id">301334</SimpleData>
	</SchemaData></ExtendedData>
      <Point><coordinates>-46.4150355030399,-23.5205379443214</coordinates></Point>
  </Placemark>
  <Placemark>
	<name>Comunidade de Peri Mirim</name>
	<description>Entidade</description>
	<ExtendedData><SchemaData schemaUrl="#doacoes_entregues">
		<SimpleData name="ENDERECO">Travessa Peri Mirim</SimpleData>
		<SimpleData name="id">301370</SimpleData>
	</SchemaData></ExtendedData>
      <Point><coordinates>-46.4517677921757,-23.5147058114207</coordinates></Point>
  </Placemark>
  <Placemark>
	<name>ASSOCIA??O DOS CIDAD?OS UNIDOS DA ZONA LESTE</name>
	<description>Entidade</description>
	<ExtendedData><SchemaData schemaUrl="#doacoes_entregues">
		<SimpleData name="ENDERECO">RUA BRUNO ZABALA,67 - CONJUNTO RESIDENCIAL JOS? BONIF?CIO</SimpleData>
		<SimpleData name="id">301134</SimpleData>
	</SchemaData></ExtendedData>
      <Point><coordinates>-46.4401867795443,-23.5395439572156</coordinates></Point>
  </Placemark>
  <Placemark>
	<name>Jd Pantanal</name>
	<description>Entidade</description>
	<ExtendedData><SchemaData schemaUrl="#doacoes_entregues">
		<SimpleData name="ENDERECO">Rua Jorge Jones, 380 - Vila Curu?a</SimpleData>
		<SimpleData name="id">301361</SimpleData>
	</SchemaData></ExtendedData>
      <Point><coordinates>-46.4190234435435,-23.4932328092633</coordinates></Point>
  </Placemark>
  <Placemark>
	<name>Comunidade Vila Fl?via em S?o Matheus - S?o Paulo</name>
	<description>Entidade</description>
	<ExtendedData><SchemaData schemaUrl="#doacoes_entregues">
		<SimpleData name="ENDERECO">Rua C?nego Jos? Maria Fernandes, 356 - Vila Fl?via - S?o Matheus</SimpleData>
		<SimpleData name="id">301258</SimpleData>
	</SchemaData></ExtendedData>
      <Point><coordinates>-46.480102312239,-23.5970801005663</coordinates></Point>
  </Placemark>
  <Placemark>
	<name>Recanto Santo Ant?nio, Jardim Let?cia, Jardim S?o</name>
	<description>Entidade</description>
	<ExtendedData><SchemaData schemaUrl="#doacoes_entregues">
		<SimpleData name="ENDERECO">Rua Henri Amiel, 95 e 306 -</SimpleData>
		<SimpleData name="id">301612</SimpleData>
	</SchemaData></ExtendedData>
      <Point><coordinates>-46.7426756631812,-23.6686307535905</coordinates></Point>
  </Placemark>
  <Placemark>
	<name>Bairro do Jardim Guaruj? e adjac?ncias</name>
	<description>Entidade</description>
	<ExtendedData><SchemaData schemaUrl="#doacoes_entregues">
		<SimpleData name="ENDERECO">Av. Guaruj?, 311</SimpleData>
		<SimpleData name="id">301710</SimpleData>
	</SchemaData></ExtendedData>
      <Point><coordinates>-46.7880492239724,-23.6919266241332</coordinates></Point>
  </Placemark>
  <Placemark>
	<name>Fam?lias da regi?o do Jardim Planalto, Parque Sta</name>
	<description>Entidade</description>
	<ExtendedData><SchemaData schemaUrl="#doacoes_entregues">
		<SimpleData name="ENDERECO">Rua Arrast?o, 197</SimpleData>
		<SimpleData name="id">301755</SimpleData>
	</SchemaData></ExtendedData>
      <Point><coordinates>-46.5151526488116,-23.6092660532603</coordinates></Point>
  </Placemark>
  <Placemark>
	<name>Jd Santo Eduardo e Jd Sinh? Z/L</name>
	<description>Entidade</description>
	<ExtendedData><SchemaData schemaUrl="#doacoes_entregues">
		<SimpleData name="ENDERECO">Rua Platina, 1525, Vila Carr?o</SimpleData>
		<SimpleData name="id">301490</SimpleData>
	</SchemaData></ExtendedData>
      <Point><coordinates>-46.5605047884212,-23.5388376043104</coordinates></Point>
  </Placemark>
  <Placemark>
	<name>Instituto Formando Atletas Bons de Bola  COHAB Teo</name>
	<description>Entidade</description>
	<ExtendedData><SchemaData schemaUrl="#doacoes_entregues">
		<SimpleData name="ENDERECO">Rua Flor da Madrugada, 40</SimpleData>
		<SimpleData name="id">301432</SimpleData>
	</SchemaData></ExtendedData>
      <Point><coordinates>-46.5010915066879,-23.6023050629374</coordinates></Point>
  </Placemark>
  <Placemark>
	<name>Rua da Cavalgada, 527 Jd. Julieta CEP 02161-030 Ca</name>
	<description>Entidade</description>
	<ExtendedData><SchemaData schemaUrl="#doacoes_entregues">
		<SimpleData name="ENDERECO">Rua da Cavalgada, 527 - Jardim Julieta</SimpleData>
		<SimpleData name="id">301675</SimpleData>
	</SchemaData></ExtendedData>
      <Point><coordinates>-46.5678806743074,-23.4873423508855</coordinates></Point>
  </Placemark>
  <Placemark>
	<name>Rua: Guaianases, Jd N?lia conj habitacional, parqu</name>
	<description>Entidade</description>
	<ExtendedData><SchemaData schemaUrl="#doacoes_entregues">
		<SimpleData name="ENDERECO">Rua Igarap? Serra Encantada, 218, Conjunto Habitacional Inacio Monteiro</SimpleData>
		<SimpleData name="id">301699</SimpleData>
	</SchemaData></ExtendedData>
      <Point><coordinates>-46.386427247178,-23.5161230072827</coordinates></Point>
  </Placemark>
  <Placemark>
	<name>Itaquera</name>
	<description>Entidade</description>
	<ExtendedData><SchemaData schemaUrl="#doacoes_entregues">
		<SimpleData name="ENDERECO">Rua Can??o Agalopada, 204 - Conjunto Habitacional Ant?nio Estev?o de Carvalho</SimpleData>
		<SimpleData name="id">301730</SimpleData>
	</SchemaData></ExtendedData>
      <Point><coordinates>-46.4612569129017,-23.5266958380328</coordinates></Point>
  </Placemark>
  <Placemark>
	<name>Jardim Romano. S?o Paulo.700 fam?lias</name>
	<description>Entidade</description>
	<ExtendedData><SchemaData schemaUrl="#doacoes_entregues">
		<SimpleData name="ENDERECO">Rua Diogo Gon?alves La?o 136 - Jardim Romano</SimpleData>
		<SimpleData name="id">301609</SimpleData>
	</SchemaData></ExtendedData>
      <Point><coordinates>-46.385017126824,-23.4842598671038</coordinates></Point>
  </Placemark>
  <Placemark>
	<name>Jardim Romano</name>
	<description>Entidade</description>
	<ExtendedData><SchemaData schemaUrl="#doacoes_entregues">
		<SimpleData name="ENDERECO">Rua Jo?o Barbosa Rabelo, 48, Casa 2, Jardim Romano</SimpleData>
		<SimpleData name="id">301795</SimpleData>
	</SchemaData></ExtendedData>
      <Point><coordinates>-46.381427089026,-23.4820318673989</coordinates></Point>
  </Placemark>
  <Placemark>
	<name>comunidade local</name>
	<description>Entidade</description>
	<ExtendedData><SchemaData schemaUrl="#doacoes_entregues">
		<SimpleData name="ENDERECO">Rua Gustavo paiva, 31</SimpleData>
		<SimpleData name="id">302200</SimpleData>
	</SchemaData></ExtendedData>
      <Point><coordinates>-46.7610208264858,-23.6424874831215</coordinates></Point>
  </Placemark>
  <Placemark>
	<name>Mascarenhas de Moraes e Fazenda da Juta</name>
	<description>Entidade</description>
	<ExtendedData><SchemaData schemaUrl="#doacoes_entregues">
		<SimpleData name="ENDERECO">Rua Sargento Luiz Rodrigues Filho, 100 -  Mascarenhas de Moraes</SimpleData>
		<SimpleData name="id">302437</SimpleData>
	</SchemaData></ExtendedData>
      <Point><coordinates>-46.4972395270807,-23.6176831433367</coordinates></Point>
  </Placemark>
  <Placemark>
	<name>Comunidade do Piqueri</name>
	<description>Entidade</description>
	<ExtendedData><SchemaData schemaUrl="#doacoes_entregues">
		<SimpleData name="ENDERECO">Avenida Otaviano Alves de Lima, 1881</SimpleData>
		<SimpleData name="id">302367</SimpleData>
	</SchemaData></ExtendedData>
      <Point><coordinates>-46.7099709306151,-23.5063810231669</coordinates></Point>
  </Placemark>
  <Placemark>
	<name>Direitos Humanos,Engeheiro Caetano e adjecentes</name>
	<description>Entidade</description>
	<ExtendedData><SchemaData schemaUrl="#doacoes_entregues">
		<SimpleData name="ENDERECO">Av. Dep. Emilio Carlos, 3774, Vl. nova Cachoeirinha</SimpleData>
		<SimpleData name="id">302425</SimpleData>
	</SchemaData></ExtendedData>
      <Point><coordinates>-46.6510523642019,-23.4851040990781</coordinates></Point>
  </Placemark>
  <Placemark>
	<name>Ermelino Matarazzo, S?o Miguel Paulista, Itaim Pau</name>
	<description>Entidade</description>
	<ExtendedData><SchemaData schemaUrl="#doacoes_entregues">
		<SimpleData name="ENDERECO">Avenida Abel Tavares, 1564 - Ermelino Matarazzo</SimpleData>
		<SimpleData name="id">302133</SimpleData>
	</SchemaData></ExtendedData>
      <Point><coordinates>-46.4733229028749,-23.4940216554472</coordinates></Point>
  </Placemark>
  <Placemark>
	<name>zona Leste</name>
	<description>Entidade</description>
	<ExtendedData><SchemaData schemaUrl="#doacoes_entregues">
		<SimpleData name="ENDERECO">Rua Jos? Pessota, 14-B - Pq. Santa Rita em frente ao n? 625.</SimpleData>
		<SimpleData name="id">302284</SimpleData>
	</SchemaData></ExtendedData>
      <Point><coordinates>-46.4159484791814,-23.5112868998432</coordinates></Point>
  </Placemark>
  <Placemark>
	<name>Jardim Aracati - Ch?cara Flora</name>
	<description>Entidade</description>
	<ExtendedData><SchemaData schemaUrl="#doacoes_entregues">
		<SimpleData name="ENDERECO">Rua Jaime Fingerman, 25, Pq. Santo Antonio</SimpleData>
		<SimpleData name="id">302615</SimpleData>
	</SchemaData></ExtendedData>
      <Point><coordinates>-46.7725352106832,-23.7255568194446</coordinates></Point>
  </Placemark>
  <Placemark>
	<name>COMUNIDADE JARDIM BRASILIA</name>
	<description>Entidade</description>
	<ExtendedData><SchemaData schemaUrl="#doacoes_entregues">
		<SimpleData name="ENDERECO">Rua Bernardo Pires Silva, 149, Jardim Bras?lia</SimpleData>
		<SimpleData name="id">302627</SimpleData>
	</SchemaData></ExtendedData>
      <Point><coordinates>-46.7100767093598,-23.441431730991</coordinates></Point>
  </Placemark>
  <Placemark>
	<name>MONTE VERDE</name>
	<description>SEHAB</description>
	<ExtendedData><SchemaData schemaUrl="#doacoes_entregues">
		<SimpleData name="ENDERECO">RUA 13, 68 - MONTE VERDE</SimpleData>
		<SimpleData name="id">11212</SimpleData>
	</SchemaData></ExtendedData>
      <Point><coordinates>-46.6904367,-23.4980065</coordinates></Point>
  </Placemark>
  <Placemark>
	<name>FAVELA DA PAZ</name>
	<description>SEHAB</description>
	<ExtendedData><SchemaData schemaUrl="#doacoes_entregues">
		<SimpleData name="ENDERECO">AVENIDA MIGUEL DE IN?CIO CURY, 36 - ITAQUERA</SimpleData>
		<SimpleData name="id">11213</SimpleData>
	</SchemaData></ExtendedData>
      <Point><coordinates>-46.4621367,-23.5451637</coordinates></Point>
  </Placemark>
  <Placemark>
	<name>VILMA FLOR</name>
	<description>SEHAB</description>
	<ExtendedData><SchemaData schemaUrl="#doacoes_entregues">
		<SimpleData name="ENDERECO">Avenida dos Metal?rgicos, 1065 - Cidade Tiradentes</SimpleData>
		<SimpleData name="id">11214</SimpleData>
	</SchemaData></ExtendedData>
      <Point><coordinates>-46.4070561,-23.5916998</coordinates></Point>
  </Placemark>
  <Placemark>
	<name>COMUNIDADE JARDIM VISTA ALEGRE</name>
	<description>SEHAB</description>
	<ExtendedData><SchemaData schemaUrl="#doacoes_entregues">
		<SimpleData name="ENDERECO">Rua Itatiba do  Sul, 750 - Vista Alegre</SimpleData>
		<SimpleData name="id">11215</SimpleData>
	</SchemaData></ExtendedData>
      <Point><coordinates>-46.6887069,-23.4513084</coordinates></Point>
  </Placemark>
  <Placemark>
	<name>JARDIM MARAVILHA</name>
	<description>SEHAB</description>
	<ExtendedData><SchemaData schemaUrl="#doacoes_entregues">
		<SimpleData name="ENDERECO">Avenida Naylor de Oliveira, 94 - Cidade Tiradentes</SimpleData>
		<SimpleData name="id">11216</SimpleData>
	</SchemaData></ExtendedData>
      <Point><coordinates>-46.4022749,-23.5841386</coordinates></Point>
  </Placemark>
  <Placemark>
	<name>CHAPARRAL (14 BLOCOS)</name>
	<description>SEHAB</description>
	<ExtendedData><SchemaData schemaUrl="#doacoes_entregues">
		<SimpleData name="ENDERECO">Rua Natal Bazille, 2118</SimpleData>
		<SimpleData name="id">11217</SimpleData>
	</SchemaData></ExtendedData>
      <Point><coordinates>-46.5549177,-23.5198975</coordinates></Point>
  </Placemark>
  <Placemark>
	<name>TIQUATIRA I E II</name>
	<description>SEHAB</description>
	<ExtendedData><SchemaData schemaUrl="#doacoes_entregues">
		<SimpleData name="ENDERECO">Rua Kampala, 200 - Penha</SimpleData>
		<SimpleData name="id">11218</SimpleData>
	</SchemaData></ExtendedData>
      <Point><coordinates>-46.5521169,-23.5176332</coordinates></Point>
  </Placemark>
  <Placemark>
	<name>BOTUCATU</name>
	<description>SEHAB</description>
	<ExtendedData><SchemaData schemaUrl="#doacoes_entregues">
		<SimpleData name="ENDERECO">Rua Padre Nildo do Amaral, 720</SimpleData>
		<SimpleData name="id">11219</SimpleData>
	</SchemaData></ExtendedData>
      <Point><coordinates>-46.426541,-23.5211024</coordinates></Point>
  </Placemark>
  <Placemark>
	<name>RESIDENCIAL LUCI VALENTE</name>
	<description>SEHAB</description>
	<ExtendedData><SchemaData schemaUrl="#doacoes_entregues">
		<SimpleData name="ENDERECO">Rua Jo?o Carlos Ferreira, 525 - Boa Esperan?a</SimpleData>
		<SimpleData name="id">11220</SimpleData>
	</SchemaData></ExtendedData>
      <Point><coordinates>-46.4506198,-23.5998912</coordinates></Point>
  </Placemark>
  <Placemark>
	<name>MIGUEL IN?CIO CURY</name>
	<description>SEHAB</description>
	<ExtendedData><SchemaData schemaUrl="#doacoes_entregues">
		<SimpleData name="ENDERECO">Avenida Miguel de In?cio Cury, 36 - Itaquera</SimpleData>
		<SimpleData name="id">11221</SimpleData>
	</SchemaData></ExtendedData>
      <Point><coordinates>-46.4621367,-23.5451637</coordinates></Point>
  </Placemark>
  <Placemark>
	<name>TERCEIRA DIVISAO</name>
	<description>SEHAB</description>
	<ExtendedData><SchemaData schemaUrl="#doacoes_entregues">
		<SimpleData name="ENDERECO">Avenida Sapopemba, 2908</SimpleData>
		<SimpleData name="id">11222</SimpleData>
	</SchemaData></ExtendedData>
      <Point><coordinates>-46.5609838,-23.5731065</coordinates></Point>
  </Placemark>
  <Placemark>
	<name>TIRO AO POMBO / MOSSOBI</name>
	<description>SEHAB</description>
	<ExtendedData><SchemaData schemaUrl="#doacoes_entregues">
		<SimpleData name="ENDERECO">Rua Tiro ao Pombo,231-Trav. Raimundo de Bezerra Lima, 100</SimpleData>
		<SimpleData name="id">11223</SimpleData>
	</SchemaData></ExtendedData>
      <Point><coordinates>-46.6892553,-23.471705</coordinates></Point>
  </Placemark>
  <Placemark>
	<name>JARDIM RUBILENE</name>
	<description>SEHAB</description>
	<ExtendedData><SchemaData schemaUrl="#doacoes_entregues">
		<SimpleData name="ENDERECO">Rua Francisco Jose da Costa, 110 - Parque Dorot?ia</SimpleData>
		<SimpleData name="id">11224</SimpleData>
	</SchemaData></ExtendedData>
      <Point><coordinates>-46.64045,-23.7010799</coordinates></Point>
  </Placemark>
  <Placemark>
	<name>Jardim Nova Conquista</name>
	<description>SEHAB</description>
	<ExtendedData><SchemaData schemaUrl="#doacoes_entregues">
		<SimpleData name="ENDERECO">Travessa Somos Todos Iguais, 330  - Jardim da Conquista</SimpleData>
		<SimpleData name="id">11225</SimpleData>
	</SchemaData></ExtendedData>
      <Point><coordinates>-46.4501764,-23.6082096</coordinates></Point>
  </Placemark>
  <Placemark>
	<name>Jardim Nova Conquista</name>
	<description>SEHAB</description>
	<ExtendedData><SchemaData schemaUrl="#doacoes_entregues">
		<SimpleData name="ENDERECO">Travessa Somos Todos Iguais, 330  - Jardim da Conquista</SimpleData>
		<SimpleData name="id">11225</SimpleData>
	</SchemaData></ExtendedData>
      <Point><coordinates>-46.4501764,-23.6082096</coordinates></Point>
  </Placemark>
  <Placemark>
	<name>Jardim Boa Vista - Butant?</name>
	<description>SEHAB</description>
	<ExtendedData><SchemaData schemaUrl="#doacoes_entregues">
		<SimpleData name="ENDERECO">Rua Andr? Dias, 83, Jardim Boa Vista</SimpleData>
		<SimpleData name="id">11226</SimpleData>
	</SchemaData></ExtendedData>
      <Point><coordinates>-46.7905057,-23.5799431</coordinates></Point>
  </Placemark>
  <Placemark>
	<name>Osorio C</name>
	<description>SEHAB</description>
	<ExtendedData><SchemaData schemaUrl="#doacoes_entregues">
		<SimpleData name="ENDERECO">Rua Osorio Franco Vilhene, 1099 - Vila Nova Curu?a</SimpleData>
		<SimpleData name="id">11227</SimpleData>
	</SchemaData></ExtendedData>
      <Point><coordinates>-46.4183209,-23.5108101</coordinates></Point>
  </Placemark>
  <Placemark>
	<name>Osorio D</name>
	<description>SEHAB</description>
	<ExtendedData><SchemaData schemaUrl="#doacoes_entregues">
		<SimpleData name="ENDERECO">Rua Dama Entre Verdes, 129 - Vila Nova Curu??</SimpleData>
		<SimpleData name="id">11228</SimpleData>
	</SchemaData></ExtendedData>
      <Point><coordinates>-46.4189601,-23.5074186</coordinates></Point>
  </Placemark>
  <Placemark>
	<name>Favela 1010</name>
	<description>SEHAB</description>
	<ExtendedData><SchemaData schemaUrl="#doacoes_entregues">
		<SimpleData name="ENDERECO">Rua Cleon Maria Gacceone, 279 - Rio Pequeno</SimpleData>
		<SimpleData name="id">11229</SimpleData>
	</SchemaData></ExtendedData>
      <Point><coordinates>-46.7479081,-23.5704235</coordinates></Point>
  </Placemark>
  <Placemark>
	<name>Comunidade do Viol?o</name>
	<description>SEHAB</description>
	<ExtendedData><SchemaData schemaUrl="#doacoes_entregues">
		<SimpleData name="ENDERECO">Avenida Do Poeta, 26, Jardim Julieta</SimpleData>
		<SimpleData name="id">11230</SimpleData>
	</SchemaData></ExtendedData>
      <Point><coordinates>-46.5690772,-23.4913515</coordinates></Point>
  </Placemark>
  <Placemark>
	<name>Condom?nio M - PARAIS?POLIS</name>
	<description>SEHAB</description>
	<ExtendedData><SchemaData schemaUrl="#doacoes_entregues">
		<SimpleData name="ENDERECO">Rua Wilson, 701, Parais?polis</SimpleData>
		<SimpleData name="id">1178</SimpleData>
	</SchemaData></ExtendedData>
      <Point><coordinates>-46.7302115,-23.6192602</coordinates></Point>
  </Placemark>
  <Placemark>
	<name>Jardim Sao Bernardo</name>
	<description>SEHAB</description>
	<ExtendedData><SchemaData schemaUrl="#doacoes_entregues">
		<SimpleData name="ENDERECO">Rua Jo?o amos Comenius, 449, Jardim S?o Bernardo</SimpleData>
		<SimpleData name="id">11231</SimpleData>
	</SchemaData></ExtendedData>
      <Point><coordinates>-46.7013421,-23.7563194</coordinates></Point>
  </Placemark>
  <Placemark>
	<name>Vila Aimor?</name>
	<description>SEHAB</description>
	<ExtendedData><SchemaData schemaUrl="#doacoes_entregues">
		<SimpleData name="ENDERECO">Rua Pra?a Machacaris, n 59, Vila aymor?, Itaim Paulista</SimpleData>
		<SimpleData name="id">11232</SimpleData>
	</SchemaData></ExtendedData>
      <Point><coordinates>-46.3961035,-23.4924173</coordinates></Point>
  </Placemark>
  <Placemark>
	<name>Chafariz de Pedra A B C</name>
	<description>SEHAB</description>
	<ExtendedData><SchemaData schemaUrl="#doacoes_entregues">
		<SimpleData name="ENDERECO">Rua Ant?nio Pav?o 175</SimpleData>
		<SimpleData name="id">1131</SimpleData>
	</SchemaData></ExtendedData>
      <Point><coordinates>-46.454017,-23.6037218</coordinates></Point>
  </Placemark>
  <Placemark>
	<name>Chafariz de Pedra A B C</name>
	<description>SEHAB</description>
	<ExtendedData><SchemaData schemaUrl="#doacoes_entregues">
		<SimpleData name="ENDERECO">Rua Ant?nio Pav?o 185</SimpleData>
		<SimpleData name="id">1131</SimpleData>
	</SchemaData></ExtendedData>
      <Point><coordinates>-46.454017,-23.6037218</coordinates></Point>
  </Placemark>
  <Placemark>
	<name>Chafariz de Pedra A B C</name>
	<description>SEHAB</description>
	<ExtendedData><SchemaData schemaUrl="#doacoes_entregues">
		<SimpleData name="ENDERECO">Rua Pedro Leme 55</SimpleData>
		<SimpleData name="id">1131</SimpleData>
	</SchemaData></ExtendedData>
      <Point><coordinates>-46.454017,-23.6037218</coordinates></Point>
  </Placemark>
  <Placemark>
	<name>Jardim S?o Judas Tadeu</name>
	<description>SEHAB</description>
	<ExtendedData><SchemaData schemaUrl="#doacoes_entregues">
		<SimpleData name="ENDERECO">Rua Antonio Burlini, s/n</SimpleData>
		<SimpleData name="id">11233</SimpleData>
	</SchemaData></ExtendedData>
      <Point><coordinates>-46.7081485,-23.777379</coordinates></Point>
  </Placemark>
  <Placemark>
	<name>Comunidade do Porto</name>
	<description>SEHAB</description>
	<ExtendedData><SchemaData schemaUrl="#doacoes_entregues">
		<SimpleData name="ENDERECO">Rua Andorinha, 04</SimpleData>
		<SimpleData name="id">11234</SimpleData>
	</SchemaData></ExtendedData>
      <Point><coordinates>-46.7522896,-23.4149619</coordinates></Point>
  </Placemark>
  <Placemark>
	<name>Centro da Mulher Imigrante e Refugiada - CEMIR</name>
	<description>SMDHC</description>
	<ExtendedData><SchemaData schemaUrl="#doacoes_entregues">
		<SimpleData name="ENDERECO">RUA CONDE DE S?O JOAQUIM, 179 - BELA VISTA</SimpleData>
		<SimpleData name="id">12113</SimpleData>
	</SchemaData></ExtendedData>
      <Point><coordinates>-46.6387442,-23.5576067</coordinates></Point>
  </Placemark>
  <Placemark>
	<name>PELA VIDA</name>
	<description>SMDHC</description>
	<ExtendedData><SchemaData schemaUrl="#doacoes_entregues">
		<SimpleData name="ENDERECO">Rua Major Sert?rio, 292 - Rep?blica</SimpleData>
		<SimpleData name="id">12131</SimpleData>
	</SchemaData></ExtendedData>
      <Point><coordinates>-46.6469091,-23.5453705</coordinates></Point>
  </Placemark>
  <Placemark>
	<name>GARMIC - Grupo de Articula??o para a Conquista da Moradia do Idoso da Capital</name>
	<description>SMDHC</description>
	<ExtendedData><SchemaData schemaUrl="#doacoes_entregues">
		<SimpleData name="ENDERECO">RUA DO PARQUE, 134 - SACOM?</SimpleData>
		<SimpleData name="id">12132</SimpleData>
	</SchemaData></ExtendedData>
      <Point><coordinates>-46.6050867,-23.6027226</coordinates></Point>
  </Placemark>
  <Placemark>
	<name>MOVIMENTO ESTADUAL DA POPULA??O EM SITUA??O DE RUA</name>
	<description>SMDHC</description>
	<ExtendedData><SchemaData schemaUrl="#doacoes_entregues">
		<SimpleData name="ENDERECO">RUA JOS? BONIF?CIO, 395 - CENTRO HIST?RICO</SimpleData>
		<SimpleData name="id">12145</SimpleData>
	</SchemaData></ExtendedData>
      <Point><coordinates>-46.6339112,-23.5504533</coordinates></Point>
  </Placemark>
  <Placemark>
	<name>CAMI - Centro de Apoio e Pastoral do Migrante</name>
	<description>SMDHC</description>
	<ExtendedData><SchemaData schemaUrl="#doacoes_entregues">
		<SimpleData name="ENDERECO">Alameda Nothmann, 485 - Campos El?seos</SimpleData>
		<SimpleData name="id">12108</SimpleData>
	</SchemaData></ExtendedData>
      <Point><coordinates>-46.6458248,-23.532531</coordinates></Point>
  </Placemark>
  <Placemark>
	<name>?frica do Cora??o</name>
	<description>SMDHC</description>
	<ExtendedData><SchemaData schemaUrl="#doacoes_entregues">
		<SimpleData name="ENDERECO">RUA SILVEIRA MARTINS, 115 - S?</SimpleData>
		<SimpleData name="id">12101</SimpleData>
	</SchemaData></ExtendedData>
      <Point><coordinates>-46.6308121,-23.551783</coordinates></Point>
  </Placemark>
  <Placemark>
	<name>Pia Sociedade dos Mission?rios de S?o Carlos - Miss?o Paz</name>
	<description>SMDHC</description>
	<ExtendedData><SchemaData schemaUrl="#doacoes_entregues">
		<SimpleData name="ENDERECO">Rua do Glic?rio, 225 - Liberdade</SimpleData>
		<SimpleData name="id">12117</SimpleData>
	</SchemaData></ExtendedData>
      <Point><coordinates>-46.6278128,-23.5547109</coordinates></Point>
  </Placemark>
  <Placemark>
	<name>ASSOCIA??O SENEGALESA S?O PAULO</name>
	<description>SMDHC</description>
	<ExtendedData><SchemaData schemaUrl="#doacoes_entregues">
		<SimpleData name="ENDERECO">RUA AURORA, 981</SimpleData>
		<SimpleData name="id">12106</SimpleData>
	</SchemaData></ExtendedData>
      <Point><coordinates>-46.6448439,-23.5430058</coordinates></Point>
  </Placemark>
  <Placemark>
	<name>Associa??o dos Angolanos em S?o Paulo Palanca Negra</name>
	<description>SMDHC</description>
	<ExtendedData><SchemaData schemaUrl="#doacoes_entregues">
		<SimpleData name="ENDERECO">Rua Bar?o de Itapetininga, 255 - Conjunto 104 - Rep?blica</SimpleData>
		<SimpleData name="id">12133</SimpleData>
	</SchemaData></ExtendedData>
      <Point><coordinates>-46.6414268,-23.5442163</coordinates></Point>
  </Placemark>
  <Placemark>
	<name>FLACSO</name>
	<description>SMDHC</description>
	<ExtendedData><SchemaData schemaUrl="#doacoes_entregues">
		<SimpleData name="ENDERECO">Rua Jo?o Teodoro, 1052 - Br?s</SimpleData>
		<SimpleData name="id">12135</SimpleData>
	</SchemaData></ExtendedData>
      <Point><coordinates>-46.6224608,-23.5350901</coordinates></Point>
  </Placemark>
  <Placemark>
	<name>ASSOCIA??O BENEFICENTE ESPORTE, CULTURA E LAZER NOSSO SONHO</name>
	<description>SMDHC</description>
	<ExtendedData><SchemaData schemaUrl="#doacoes_entregues">
		<SimpleData name="ENDERECO">RUA TERRA BRASILEIRA, 265 - CIDADE ANT?NIO ESTEV?O DE CARVALHO</SimpleData>
		<SimpleData name="id">12105</SimpleData>
	</SchemaData></ExtendedData>
      <Point><coordinates>-46.4733988,-23.5234607</coordinates></Point>
  </Placemark>
  <Placemark>
	<name>Popula??o Cigana da Zona Sul</name>
	<description>SMDHC</description>
	<ExtendedData><SchemaData schemaUrl="#doacoes_entregues">
		<SimpleData name="id">12118</SimpleData>
	</SchemaData></ExtendedData>
      <Point><coordinates>-46.7028482,-23.7681921</coordinates></Point>
  </Placemark>
  <Placemark>
	<name>Popula??o Cigana do Itaim Paulsta</name>
	<description>SMDHC</description>
	<ExtendedData><SchemaData schemaUrl="#doacoes_entregues">
		<SimpleData name="ENDERECO">Acampamento Cigano na Av. Br?s da Rocha Cardoso refer?ncia esta??o CPTM DO ITAIM PAULISTA</SimpleData>
		<SimpleData name="id">12119</SimpleData>
	</SchemaData></ExtendedData>
      <Point><coordinates>-46.4017133,-23.4903494</coordinates></Point>
  </Placemark>
  <Placemark>
	<name>Grupo da Melhor Idade do Jardim Popular</name>
	<description>SMDHC</description>
	<ExtendedData><SchemaData schemaUrl="#doacoes_entregues">
		<SimpleData name="ENDERECO">Rua Novo Oriente do Piau?, 160, Vila Silvia, Canga?ba</SimpleData>
		<SimpleData name="id">12124</SimpleData>
	</SchemaData></ExtendedData>
      <Point><coordinates>-46.5039975,-23.4939599</coordinates></Point>
  </Placemark>
  <Placemark>
	<name>Associa??o dos Idosos de Sapopemba</name>
	<description>SMDHC</description>
	<ExtendedData><SchemaData schemaUrl="#doacoes_entregues">
		<SimpleData name="ENDERECO">Rua Jos? de Queiroz Matos, 216, Jd. Grimaldi</SimpleData>
		<SimpleData name="id">12134</SimpleData>
	</SchemaData></ExtendedData>
      <Point><coordinates>-46.5161492,-23.598333</coordinates></Point>
  </Placemark>
  <Placemark>
	<name>ASSOCIA??O JAIME AB?LIO DE S?</name>
	<description>SMDHC</description>
	<ExtendedData><SchemaData schemaUrl="#doacoes_entregues">
		<SimpleData name="ENDERECO">RUA ALBERTO LUPO, 521 - PARQUE DOS BANC?RIOS</SimpleData>
		<SimpleData name="id">12147</SimpleData>
	</SchemaData></ExtendedData>
      <Point><coordinates>-46.5143699,-23.5904086</coordinates></Point>
  </Placemark>
  <Placemark>
	<name>A??o Educativa, Assessoria, Pesquisa e Informa??o</name>
	<description>SMDHC</description>
	<ExtendedData><SchemaData schemaUrl="#doacoes_entregues">
		<SimpleData name="ENDERECO">Rua Rainha do Bosque , 06 - Vila Santa In?s</SimpleData>
		<SimpleData name="id">12155</SimpleData>
	</SchemaData></ExtendedData>
      <Point><coordinates>-46.4662744,-23.4928898</coordinates></Point>
  </Placemark>
  <Placemark>
	<name>Associa??o Social, Educacional e Cultural Novos Rumos - Comunidade Jardim Modelo Favela da Ponte</name>
	<description>SMDHC</description>
	<ExtendedData><SchemaData schemaUrl="#doacoes_entregues">
		<SimpleData name="ENDERECO">Rua General Jer?nimo Furtado, 796 - Jardim Modelo</SimpleData>
		<SimpleData name="id">12156</SimpleData>
	</SchemaData></ExtendedData>
      <Point><coordinates>-46.5687,-23.46396</coordinates></Point>
  </Placemark>
  <Placemark>
	<name>CDC Prestes Maia (Clube da Comunidade Pref Francisco)</name>
	<description>SMDHC</description>
	<ExtendedData><SchemaData schemaUrl="#doacoes_entregues">
		<SimpleData name="ENDERECO">Rua Jos? Dias da Costa , Jardim Colombo</SimpleData>
		<SimpleData name="id">12111</SimpleData>
	</SchemaData></ExtendedData>
      <Point><coordinates>-46.7257187,-23.6097312</coordinates></Point>
  </Placemark>
  <Placemark>
	<name>PAR?QUIA S?O BENTO</name>
	<description>SMDHC</description>
	<ExtendedData><SchemaData schemaUrl="#doacoes_entregues">
		<SimpleData name="ENDERECO">RUA DOUTOR M?RIO DE CAMPOS, 191 - AMERICAN?POLIS</SimpleData>
		<SimpleData name="id">12116</SimpleData>
	</SchemaData></ExtendedData>
      <Point><coordinates>-46.6426838,-23.662491</coordinates></Point>
  </Placemark>
  <Placemark>
	<name>ASSOCIA??O BENEFICENTE CANTINHO DA TERCEIRA IDADE</name>
	<description>SMDHC</description>
	<ExtendedData><SchemaData schemaUrl="#doacoes_entregues">
		<SimpleData name="ENDERECO">RUA MARIA TEREZA DE ANDRADE, 14 - S?TIO REPRESA</SimpleData>
		<SimpleData name="id">12136</SimpleData>
	</SchemaData></ExtendedData>
      <Point><coordinates>-46.7616512,-23.8550739</coordinates></Point>
  </Placemark>
  <Placemark>
	<name>Associa??o Beneficente Guilhermina Maria de Jesus</name>
	<description>SMDHC</description>
	<ExtendedData><SchemaData schemaUrl="#doacoes_entregues">
		<SimpleData name="ENDERECO">Avenida Paulo Guilguer Reimberg, 7003 - Ch?cara Santo Amaro</SimpleData>
		<SimpleData name="id">12138</SimpleData>
	</SchemaData></ExtendedData>
      <Point><coordinates>-46.6765455,-23.813212</coordinates></Point>
  </Placemark>
  <Placemark>
	<name>INSTITUTO SOCIAL CATIVEIRO</name>
	<description>SMDHC</description>
	<ExtendedData><SchemaData schemaUrl="#doacoes_entregues">
		<SimpleData name="ENDERECO">RUA JO?O ROMAN WIRKUS, 53 - RIO PEQUENO</SimpleData>
		<SimpleData name="id">12153</SimpleData>
	</SchemaData></ExtendedData>
      <Point><coordinates>-46.7620112,-23.5683119</coordinates></Point>
  </Placemark>
  <Placemark>
	<name>Territ?rio Indigena do Jaragu?</name>
	<description>SMDHC</description>
	<ExtendedData><SchemaData schemaUrl="#doacoes_entregues">
		<SimpleData name="ENDERECO">Estrada Tur?stica do Jaragu?, 3750 - Vila Jaragu?, S?o Paulo</SimpleData>
		<SimpleData name="id">12157</SimpleData>
	</SchemaData></ExtendedData>
      <Point><coordinates>-46.7537618,-23.4639436</coordinates></Point>
  </Placemark>
  <Placemark>
	<name>Territ?rio Indigena do Tenond? Por? - Parelheiros</name>
	<description>SMDHC</description>
	<ExtendedData><SchemaData schemaUrl="#doacoes_entregues">
		<SimpleData name="ENDERECO">Estrada Jo?o Lang, 153 - Cip? do Meio, S?o Paulo - SP</SimpleData>
		<SimpleData name="id">12158</SimpleData>
	</SchemaData></ExtendedData>
      <Point><coordinates>-46.6520745,-23.8680234</coordinates></Point>
  </Placemark>
  <Placemark>
	<name>Territ?rio Indigena de Tekoa Yyrex?k? - Marsilac</name>
	<description>SMDHC</description>
	<ExtendedData><SchemaData schemaUrl="#doacoes_entregues">
		<SimpleData name="ENDERECO">Territ?rio Ind?gena Aldeia Tekoa Yyrex?k? - Estrada Engenheiro Marsilac</SimpleData>
		<SimpleData name="id">12159</SimpleData>
	</SchemaData></ExtendedData>
      <Point><coordinates>-46.680341,-23.9348467</coordinates></Point>
  </Placemark>
  <Placemark>
	<name>Associa??o dos Angolanos em S?o Paulo Palanca Negra</name>
	<description>SMDHC</description>
	<ExtendedData><SchemaData schemaUrl="#doacoes_entregues">
		<SimpleData name="ENDERECO">Rua Bar?o de Itapetininga, 255 - Conjunto 104 - Rep?blica</SimpleData>
		<SimpleData name="id">12133</SimpleData>
	</SchemaData></ExtendedData>
      <Point><coordinates>-46.6414268,-23.5442163</coordinates></Point>
  </Placemark>
  <Placemark>
	<name>Associa??o Cultural Corrente Libertadora</name>
	<description>SMDHC</description>
	<ExtendedData><SchemaData schemaUrl="#doacoes_entregues">
		<SimpleData name="ENDERECO">Rua Cerqueira Cesar, 185 - Santo Amaro</SimpleData>
		<SimpleData name="id">12154</SimpleData>
	</SchemaData></ExtendedData>
      <Point><coordinates>-46.7082824,-23.6498459</coordinates></Point>
  </Placemark>
  <Placemark>
	<name>Centro da Mulher Imigrante e Refugiada - CEMIR</name>
	<description>SMDHC</description>
	<ExtendedData><SchemaData schemaUrl="#doacoes_entregues">
		<SimpleData name="ENDERECO">RUA CONDE DE S?O JOAQUIM, 179 - BELA VISTA</SimpleData>
		<SimpleData name="id">12113</SimpleData>
	</SchemaData></ExtendedData>
      <Point><coordinates>-46.6387442,-23.5576067</coordinates></Point>
  </Placemark>
  <Placemark>
	<name>FLACSO</name>
	<description>SMDHC</description>
	<ExtendedData><SchemaData schemaUrl="#doacoes_entregues">
		<SimpleData name="ENDERECO">Rua Jo?o Teodoro, 1052 - Br?s</SimpleData>
		<SimpleData name="id">12135</SimpleData>
	</SchemaData></ExtendedData>
      <Point><coordinates>-46.6224608,-23.5350901</coordinates></Point>
  </Placemark>
  <Placemark>
	<name>PELA VIDA</name>
	<description>SMDHC</description>
	<ExtendedData><SchemaData schemaUrl="#doacoes_entregues">
		<SimpleData name="ENDERECO">Rua Major Sert?rio, 292 - Rep?blica</SimpleData>
		<SimpleData name="id">12131</SimpleData>
	</SchemaData></ExtendedData>
      <Point><coordinates>-46.6469091,-23.5453705</coordinates></Point>
  </Placemark>
  <Placemark>
	<name>MOVIMENTO ESTADUAL DA POPULA??O EM SITUA??O DE RUA</name>
	<description>SMDHC</description>
	<ExtendedData><SchemaData schemaUrl="#doacoes_entregues">
		<SimpleData name="ENDERECO">RUA JOS? BONIF?CIO, 395 - CENTRO HIST?RICO</SimpleData>
		<SimpleData name="id">12145</SimpleData>
	</SchemaData></ExtendedData>
      <Point><coordinates>-46.6339112,-23.5504533</coordinates></Point>
  </Placemark>
  <Placemark>
	<name>Associa??o Comunit?ria M?o Amiga</name>
	<description>SMDHC</description>
	<ExtendedData><SchemaData schemaUrl="#doacoes_entregues">
		<SimpleData name="ENDERECO">Rua Solidonio Leite, 1890,  Vila Ivone</SimpleData>
		<SimpleData name="id">12160</SimpleData>
	</SchemaData></ExtendedData>
      <Point><coordinates>-46.5405876,-23.5844423</coordinates></Point>
  </Placemark>
  <Placemark>
	<name>CAMI - Centro de Apoio e Pastoral do Migrante</name>
	<description>SMDHC</description>
	<ExtendedData><SchemaData schemaUrl="#doacoes_entregues">
		<SimpleData name="ENDERECO">Alameda Nothmann, 485 - Campos El?seos</SimpleData>
		<SimpleData name="id">12108</SimpleData>
	</SchemaData></ExtendedData>
      <Point><coordinates>-46.6458248,-23.532531</coordinates></Point>
  </Placemark>
  <Placemark>
	<name>?frica do Cora??o</name>
	<description>SMDHC</description>
	<ExtendedData><SchemaData schemaUrl="#doacoes_entregues">
		<SimpleData name="ENDERECO">RUA SILVEIRA MARTINS, 115 - S?</SimpleData>
		<SimpleData name="id">12101</SimpleData>
	</SchemaData></ExtendedData>
      <Point><coordinates>-46.6308121,-23.551783</coordinates></Point>
  </Placemark>
  <Placemark>
	<name>Pia Sociedade dos Mission?rios de S?o Carlos - Miss?o Paz</name>
	<description>SMDHC</description>
	<ExtendedData><SchemaData schemaUrl="#doacoes_entregues">
		<SimpleData name="ENDERECO">Rua do Glic?rio, 225 - Liberdade</SimpleData>
		<SimpleData name="id">12117</SimpleData>
	</SchemaData></ExtendedData>
      <Point><coordinates>-46.6278128,-23.5547109</coordinates></Point>
  </Placemark>
  <Placemark>
	<name>SERVI?O FRANCISCANO DE SOLIDARIEDADE - SEFRAS</name>
	<description>SMDHC</description>
	<ExtendedData><SchemaData schemaUrl="#doacoes_entregues">
		<SimpleData name="ENDERECO">RUA MAJOR DIOGO, 834 - BELA VISTA</SimpleData>
		<SimpleData name="id">12146</SimpleData>
	</SchemaData></ExtendedData>
      <Point><coordinates>-46.6427683,-23.5586306</coordinates></Point>
  </Placemark>
  <Placemark>
	<name>ASSOCIA??O SENEGALESA S?O PAULO</name>
	<description>SMDHC</description>
	<ExtendedData><SchemaData schemaUrl="#doacoes_entregues">
		<SimpleData name="ENDERECO">RUA AURORA, 981</SimpleData>
		<SimpleData name="id">12106</SimpleData>
	</SchemaData></ExtendedData>
      <Point><coordinates>-46.6448439,-23.5430058</coordinates></Point>
  </Placemark>
  <Placemark>
	<name>ASSOCIA??O SENEGALESA S?O PAULO</name>
	<description>SMDHC</description>
	<ExtendedData><SchemaData schemaUrl="#doacoes_entregues">
		<SimpleData name="ENDERECO">RUA AURORA, 981</SimpleData>
		<SimpleData name="id">12106</SimpleData>
	</SchemaData></ExtendedData>
      <Point><coordinates>-46.6448439,-23.5430058</coordinates></Point>
  </Placemark>
  <Placemark>
	<name>CENTRO DE PROMO??O HUMANA LAR VICENTINO ERMELINO MATARAZZO</name>
	<description>SMDHC</description>
	<ExtendedData><SchemaData schemaUrl="#doacoes_entregues">
		<SimpleData name="ENDERECO">Rua Abel Tavares, 1564 - Ermelino Matarazzo</SimpleData>
		<SimpleData name="id">12152</SimpleData>
	</SchemaData></ExtendedData>
      <Point><coordinates>-46.4710054,-23.4863318</coordinates></Point>
  </Placemark>
  <Placemark>
	<name>Associa??o Feira Kantuta</name>
	<description>SMDHC</description>
	<ExtendedData><SchemaData schemaUrl="#doacoes_entregues">
		<SimpleData name="ENDERECO">Rua Silva Pinto, 423 - Bom Retiro</SimpleData>
		<SimpleData name="id">12130</SimpleData>
	</SchemaData></ExtendedData>
      <Point><coordinates>-46.6387987,-23.5277664</coordinates></Point>
  </Placemark>
  <Placemark>
	<name>Consulado-Geral do Equador em S?o Paulo</name>
	<description>SMDHC</description>
	<ExtendedData><SchemaData schemaUrl="#doacoes_entregues">
		<SimpleData name="ENDERECO">Alameda Santos, 2313 - Cerqueira C?sar, Ed. Jorge Azem, 4o andar, CEP 01419-002</SimpleData>
		<SimpleData name="id">12143</SimpleData>
	</SchemaData></ExtendedData>
      <Point><coordinates>-46.6623718,-23.5583249</coordinates></Point>
  </Placemark>
  <Placemark>
	<name>Grupo Melhor Idade Raz?o e Emo??o</name>
	<description>SMDHC</description>
	<ExtendedData><SchemaData schemaUrl="#doacoes_entregues">
		<SimpleData name="ENDERECO">Rua Barra do Sirinhaen, 289 - Jardim Guarani</SimpleData>
		<SimpleData name="id">12114</SimpleData>
	</SchemaData></ExtendedData>
      <Point><coordinates>-46.6924367,-23.459541</coordinates></Point>
  </Placemark>
  <Placemark>
	<name>Presen?a da Am?rica Latina-PAL</name>
	<description>SMDHC</description>
	<ExtendedData><SchemaData schemaUrl="#doacoes_entregues">
		<SimpleData name="ENDERECO">Museu da Imigra??o. Endere?o: R. Visc. de Parna?ba, 1316 - Mooca, S?o Paulo - SP, 03164-300 Sala das Comunidades</SimpleData>
		<SimpleData name="id">12123</SimpleData>
	</SchemaData></ExtendedData>
      <Point><coordinates>-46.612694,-23.549695</coordinates></Point>
  </Placemark>
  <Placemark>
	<name>A??o Educativa, Assessoria, Pesquisa e Informa??o</name>
	<description>SMDHC</description>
	<ExtendedData><SchemaData schemaUrl="#doacoes_entregues">
		<SimpleData name="ENDERECO">Rua Rainha do Bosque , 06 - Vila Santa In?s</SimpleData>
		<SimpleData name="id">12155</SimpleData>
	</SchemaData></ExtendedData>
      <Point><coordinates>-46.4662744,-23.4928898</coordinates></Point>
  </Placemark>
  <Placemark>
	<name>SASF (SAS S? / CAMBUCI)</name>
	<description>SMADS</description>
	<ExtendedData><SchemaData schemaUrl="#doacoes_entregues">
		<SimpleData name="ENDERECO">RUA FRANCISCO JUSTINO AZEVEDO, 79 - ACLIMA??O</SimpleData>
		<SimpleData name="id">13156</SimpleData>
	</SchemaData></ExtendedData>
      <Point><coordinates>-46.6237623,-23.5626454</coordinates></Point>
  </Placemark>
  <Placemark>
	<name>SASF S?O RAFAEL</name>
	<description>SMADS</description>
	<ExtendedData><SchemaData schemaUrl="#doacoes_entregues">
		<SimpleData name="ENDERECO">RUA CINIRA POL?NIO, 371 - CONJUNTO PROMORAR RIO CLARO</SimpleData>
		<SimpleData name="id">13157</SimpleData>
	</SchemaData></ExtendedData>
      <Point><coordinates>-46.4578488,-23.6225199</coordinates></Point>
  </Placemark>
  <Placemark>
	<name>SASF DOM M?RIO GURGEL</name>
	<description>SMADS</description>
	<ExtendedData><SchemaData schemaUrl="#doacoes_entregues">
		<SimpleData name="ENDERECO">AVENIDA DIREITOS HUMANOS, 701 - LAUZANE PAULISTA</SimpleData>
		<SimpleData name="id">13158</SimpleData>
	</SchemaData></ExtendedData>
      <Point><coordinates>-46.6502297,-23.4838392</coordinates></Point>
  </Placemark>
  <Placemark>
	<name>SASF S?O LUCAS</name>
	<description>SMADS</description>
	<ExtendedData><SchemaData schemaUrl="#doacoes_entregues">
		<SimpleData name="ENDERECO">RUA JACARAND? PRETO, 233 - JARDIM PANORAMA</SimpleData>
		<SimpleData name="id">13159</SimpleData>
	</SchemaData></ExtendedData>
      <Point><coordinates>-46.5361386,-23.6070099</coordinates></Point>
  </Placemark>
  <Placemark>
	<name>CRAS LAPA</name>
	<description>SMADS</description>
	<ExtendedData><SchemaData schemaUrl="#doacoes_entregues">
		<SimpleData name="ENDERECO">Rua Caio Graco, 421/423 - Vila Romana</SimpleData>
		<SimpleData name="id">13201</SimpleData>
	</SchemaData></ExtendedData>
      <Point><coordinates>-46.6943391,-23.5270438</coordinates></Point>
  </Placemark>
  <Placemark>
	<name>CRAS MOOCA</name>
	<description>SMADS</description>
	<ExtendedData><SchemaData schemaUrl="#doacoes_entregues">
		<SimpleData name="ENDERECO">Rua Henrique Sert?rio, 175 - Tatuap?</SimpleData>
		<SimpleData name="id">13202</SimpleData>
	</SchemaData></ExtendedData>
      <Point><coordinates>-46.5779236,-23.5365945</coordinates></Point>
  </Placemark>
  <Placemark>
	<name>CRAS ANHANGUERA</name>
	<description>SMADS</description>
	<ExtendedData><SchemaData schemaUrl="#doacoes_entregues">
		<SimpleData name="ENDERECO">Rua Piero Tricca, 27 - Jardim Santa F?</SimpleData>
		<SimpleData name="id">13203</SimpleData>
	</SchemaData></ExtendedData>
      <Point><coordinates>-46.7910701,-23.4306871</coordinates></Point>
  </Placemark>
  <Placemark>
	<name>CRAS PERUS</name>
	<description>SMADS</description>
	<ExtendedData><SchemaData schemaUrl="#doacoes_entregues">
		<SimpleData name="ENDERECO">Rua Padre Manuel Campello, 40 - Vila Inacio</SimpleData>
		<SimpleData name="id">13204</SimpleData>
	</SchemaData></ExtendedData>
      <Point><coordinates>-46.7551166,-23.4054114</coordinates></Point>
  </Placemark>
  <Placemark>
	<name>CRAS PINHEIROS</name>
	<description>SMADS</description>
	<ExtendedData><SchemaData schemaUrl="#doacoes_entregues">
		<SimpleData name="ENDERECO">R. Mourato Coelho,106, Pinheiros</SimpleData>
		<SimpleData name="id">13205</SimpleData>
	</SchemaData></ExtendedData>
      <Point><coordinates>-46.6857511,-23.5658617</coordinates></Point>
  </Placemark>
  <Placemark>
	<name>CRAS SANTO AMARO</name>
	<description>SMADS</description>
	<ExtendedData><SchemaData schemaUrl="#doacoes_entregues">
		<SimpleData name="ENDERECO">Rua Padre Jos? de Anchieta, 802, Santo Amaro</SimpleData>
		<SimpleData name="id">13206</SimpleData>
	</SchemaData></ExtendedData>
      <Point><coordinates>-46.7016479,-23.650341</coordinates></Point>
  </Placemark>
  <Placemark>
	<name>CRAS VILA MARIANA</name>
	<description>SMADS</description>
	<ExtendedData><SchemaData schemaUrl="#doacoes_entregues">
		<SimpleData name="ENDERECO">Rua Professor Ascendino Reis, 830, Vila Clementino</SimpleData>
		<SimpleData name="id">13207</SimpleData>
	</SchemaData></ExtendedData>
      <Point><coordinates>-46.6512387,-23.5983795</coordinates></Point>
  </Placemark>
  <Placemark>
	<name>SASF CIDADE TIRADENTES</name>
	<description>SMADS</description>
	<ExtendedData><SchemaData schemaUrl="#doacoes_entregues">
		<SimpleData name="ENDERECO">Rua Ernesto Gould, 406, Cidade Tiradentes</SimpleData>
		<SimpleData name="id">13117</SimpleData>
	</SchemaData></ExtendedData>
      <Point><coordinates>-46.4072692,-23.588829</coordinates></Point>
  </Placemark>
  <Placemark>
	<name>SASF UBUNTU - CASA DA HUMANIDADE</name>
	<description>SMADS</description>
	<ExtendedData><SchemaData schemaUrl="#doacoes_entregues">
		<SimpleData name="ENDERECO">Rua Berilo da Fonseca Neves, 87 - S?tio dos Pereiras</SimpleData>
		<SimpleData name="id">13118</SimpleData>
	</SchemaData></ExtendedData>
      <Point><coordinates>-46.3854884,-23.5837607</coordinates></Point>
  </Placemark>
  <Placemark>
	<name>SASF CACHOEIRINHA</name>
	<description>SMADS</description>
	<ExtendedData><SchemaData schemaUrl="#doacoes_entregues">
		<SimpleData name="ENDERECO">RUA BRASILUSO LOPES, 25-D - JARDIM PERI</SimpleData>
		<SimpleData name="id">13119</SimpleData>
	</SchemaData></ExtendedData>
      <Point><coordinates>-46.6524509,-23.4609338</coordinates></Point>
  </Placemark>
  <Placemark>
	<name>SASF PONTE RASA</name>
	<description>SMADS</description>
	<ExtendedData><SchemaData schemaUrl="#doacoes_entregues">
		<SimpleData name="ENDERECO">RUA ANTONIO FORTUNATO, 627 - BURGO PAULISTA</SimpleData>
		<SimpleData name="id">13120</SimpleData>
	</SchemaData></ExtendedData>
      <Point><coordinates>-46.4880588,-23.5232373</coordinates></Point>
  </Placemark>
  <Placemark>
	<name>SASF ELISA MARIA</name>
	<description>SMADS</description>
	<ExtendedData><SchemaData schemaUrl="#doacoes_entregues">
		<SimpleData name="ENDERECO">RUA S?O FRANCISCO DO HUMAIT?, 107 - PARQUE TIET?</SimpleData>
		<SimpleData name="id">13121</SimpleData>
	</SchemaData></ExtendedData>
      <Point><coordinates>-46.6757443,-23.4610837</coordinates></Point>
  </Placemark>
  <Placemark>
	<name>SASF GUAIANASES PROJESP</name>
	<description>SMADS</description>
	<ExtendedData><SchemaData schemaUrl="#doacoes_entregues">
		<SimpleData name="ENDERECO">ESTRADA DE PO?, 1740 - VILA S?O GERALDO</SimpleData>
		<SimpleData name="id">13122</SimpleData>
	</SchemaData></ExtendedData>
      <Point><coordinates>-46.39584,-23.551245</coordinates></Point>
  </Placemark>
  <Placemark>
	<name>SASF AVIB</name>
	<description>SMADS</description>
	<ExtendedData><SchemaData schemaUrl="#doacoes_entregues">
		<SimpleData name="ENDERECO">RUA SERRA DAS ARARAS, 410 - VILA IOLANDA</SimpleData>
		<SimpleData name="id">13123</SimpleData>
	</SchemaData></ExtendedData>
      <Point><coordinates>-46.4021626,-23.5365358</coordinates></Point>
  </Placemark>
  <Placemark>
	<name>SASF CHICO MENDES - UNAS</name>
	<description>SMADS</description>
	<ExtendedData><SchemaData schemaUrl="#doacoes_entregues">
		<SimpleData name="ENDERECO">RUA CAN??O DO EX?LIO, 210 - JARDIM S?O SAV?RIO</SimpleData>
		<SimpleData name="id">13124</SimpleData>
	</SchemaData></ExtendedData>
      <Point><coordinates>-46.6103832,-23.6528851</coordinates></Point>
  </Placemark>
  <Placemark>
	<name>SASF ITAQUERA</name>
	<description>SMADS</description>
	<ExtendedData><SchemaData schemaUrl="#doacoes_entregues">
		<SimpleData name="ENDERECO">Rua Catarina Lopes, 345 - Vila Regina</SimpleData>
		<SimpleData name="id">13125</SimpleData>
	</SchemaData></ExtendedData>
      <Point><coordinates>-46.4588681,-23.5309332</coordinates></Point>
  </Placemark>
  <Placemark>
	<name>SASF JOS? BONIF?CIO</name>
	<description>SMADS</description>
	<ExtendedData><SchemaData schemaUrl="#doacoes_entregues">
		<SimpleData name="ENDERECO">Rua Alayde de Souza Costa, 276 - Jos? Bonif?cio</SimpleData>
		<SimpleData name="id">13126</SimpleData>
	</SchemaData></ExtendedData>
      <Point><coordinates>-46.4435925,-23.5425582</coordinates></Point>
  </Placemark>
  <Placemark>
	<name>SASF PARQUE DO CARMO ? BEATO LUIS BIRAGHI</name>
	<description>SMADS</description>
	<ExtendedData><SchemaData schemaUrl="#doacoes_entregues">
		<SimpleData name="ENDERECO">Rua Francisco Tranchesi, 483</SimpleData>
		<SimpleData name="id">13127</SimpleData>
	</SchemaData></ExtendedData>
      <Point><coordinates>-46.4615061,-23.5637476</coordinates></Point>
  </Placemark>
  <Placemark>
	<name>SASF ITAIM PAULISTA II</name>
	<description>SMADS</description>
	<ExtendedData><SchemaData schemaUrl="#doacoes_entregues">
		<SimpleData name="ENDERECO">Rua Dr. Almiro Leal da Costa, 22 - Jd. Das Oliveiras, Itaim Paulista</SimpleData>
		<SimpleData name="id">13128</SimpleData>
	</SchemaData></ExtendedData>
      <Point><coordinates>-46.3784804,-23.4912933</coordinates></Point>
  </Placemark>
  <Placemark>
	<name>SASF ITAIM PAULISTA 2</name>
	<description>SMADS</description>
	<ExtendedData><SchemaData schemaUrl="#doacoes_entregues">
		<SimpleData name="ENDERECO">Rua Tapuirana, 63 - Jardim S?o Luis, Itaim Paulista</SimpleData>
		<SimpleData name="id">13129</SimpleData>
	</SchemaData></ExtendedData>
      <Point><coordinates>-46.3876753,-23.4953763</coordinates></Point>
  </Placemark>
  <Placemark>
	<name>SASF CURU??</name>
	<description>SMADS</description>
	<ExtendedData><SchemaData schemaUrl="#doacoes_entregues">
		<SimpleData name="ENDERECO">Rua Palanque, 40 - Vila Curu?? Velha</SimpleData>
		<SimpleData name="id">13130</SimpleData>
	</SchemaData></ExtendedData>
      <Point><coordinates>-46.4259806,-23.499594</coordinates></Point>
  </Placemark>
  <Placemark>
	<name>SASF CURU?? - CASA DA FAM?LIA</name>
	<description>SMADS</description>
	<ExtendedData><SchemaData schemaUrl="#doacoes_entregues">
		<SimpleData name="ENDERECO">Rua An?sio da Silveira Machado, 441 - Jardim Robru</SimpleData>
		<SimpleData name="id">13131</SimpleData>
	</SchemaData></ExtendedData>
      <Point><coordinates>-46.414962,-23.5171264</coordinates></Point>
  </Placemark>
  <Placemark>
	<name>SASF AME</name>
	<description>SMADS</description>
	<ExtendedData><SchemaData schemaUrl="#doacoes_entregues">
		<SimpleData name="ENDERECO">Avenida Eul?lia, 278 - Vila Fachinni</SimpleData>
		<SimpleData name="id">13132</SimpleData>
	</SchemaData></ExtendedData>
      <Point><coordinates>-46.6347833,-23.6554569</coordinates></Point>
  </Placemark>
  <Placemark>
	<name>SASF JA?AN?</name>
	<description>SMADS</description>
	<ExtendedData><SchemaData schemaUrl="#doacoes_entregues">
		<SimpleData name="ENDERECO">Rua Anibal Augusto Sardinha, 88, Ja?an?</SimpleData>
		<SimpleData name="id">13133</SimpleData>
	</SchemaData></ExtendedData>
      <Point><coordinates>-46.5823879,-23.4628383</coordinates></Point>
  </Placemark>
  <Placemark>
	<name>SASF TREMEMB?</name>
	<description>SMADS</description>
	<ExtendedData><SchemaData schemaUrl="#doacoes_entregues">
		<SimpleData name="ENDERECO">Rua Montenegro, 18 - Jd. Felicidade, Trememb?</SimpleData>
		<SimpleData name="id">13134</SimpleData>
	</SchemaData></ExtendedData>
      <Point><coordinates>-46.5767842,-23.4456207</coordinates></Point>
  </Placemark>
  <Placemark>
	<name>SASF JARDIM ?NGELA I</name>
	<description>SMADS</description>
	<ExtendedData><SchemaData schemaUrl="#doacoes_entregues">
		<SimpleData name="ENDERECO">Rua Nicolau Borboni, 215 - Jd. Vera Cruz - Jd Angela</SimpleData>
		<SimpleData name="id">13135</SimpleData>
	</SchemaData></ExtendedData>
      <Point><coordinates>-46.781604,-23.73742</coordinates></Point>
  </Placemark>
  <Placemark>
	<name>SASF JARDIM ?NGELA II</name>
	<description>SMADS</description>
	<ExtendedData><SchemaData schemaUrl="#doacoes_entregues">
		<SimpleData name="ENDERECO">Av. Taquandava, 17 - CIidade Ipava - Jd Angela</SimpleData>
		<SimpleData name="id">13136</SimpleData>
	</SchemaData></ExtendedData>
      <Point><coordinates>-46.7644528,-23.7233952</coordinates></Point>
  </Placemark>
  <Placemark>
	<name>SASF JARDIM ?NGELA IV</name>
	<description>SMADS</description>
	<ExtendedData><SchemaData schemaUrl="#doacoes_entregues">
		<SimpleData name="ENDERECO">Av. Comendador Santana, 1932 - Jd. S?o Jos? - Jd Angela</SimpleData>
		<SimpleData name="id">13137</SimpleData>
	</SchemaData></ExtendedData>
      <Point><coordinates>-46.774072,-23.675689</coordinates></Point>
  </Placemark>
  <Placemark>
	<name>SASF JARDIM ?NGELA III</name>
	<description>SMADS</description>
	<ExtendedData><SchemaData schemaUrl="#doacoes_entregues">
		<SimpleData name="ENDERECO">Rua Marcelino Coelho, 284, Jardim Angela</SimpleData>
		<SimpleData name="id">13138</SimpleData>
	</SchemaData></ExtendedData>
      <Point><coordinates>-46.7718342,-23.6883943</coordinates></Point>
  </Placemark>
  <Placemark>
	<name>SASF S?O LUIZ II</name>
	<description>SMADS</description>
	<ExtendedData><SchemaData schemaUrl="#doacoes_entregues">
		<SimpleData name="ENDERECO">RUA PROFESSOR ANT?NIO DE FRANCO, 22 - JARDIM S?O LUIZ</SimpleData>
		<SimpleData name="id">13139</SimpleData>
	</SchemaData></ExtendedData>
      <Point><coordinates>-46.7407605,-23.6555319</coordinates></Point>
  </Placemark>
  <Placemark>
	<name>SASF JARDIM S?O LUIZ I</name>
	<description>SMADS</description>
	<ExtendedData><SchemaData schemaUrl="#doacoes_entregues">
		<SimpleData name="ENDERECO">RUA DURVAL GUERRA DE AZEVEDO, 531 - PARQUE SANTO ANT?NIO</SimpleData>
		<SimpleData name="id">13140</SimpleData>
	</SchemaData></ExtendedData>
      <Point><coordinates>-46.7583276,-23.6642783</coordinates></Point>
  </Placemark>
  <Placemark>
	<name>ANDDDES</name>
	<description>SMPED</description>
	<ExtendedData><SchemaData schemaUrl="#doacoes_entregues">
		<SimpleData name="ENDERECO">Rua Abigail Maia, 27 - Jardim Soraia</SimpleData>
		<SimpleData name="id">14113</SimpleData>
	</SchemaData></ExtendedData>
      <Point><coordinates>-46.7777694,-23.6800328</coordinates></Point>
  </Placemark>
  <Placemark>
	<name>INSTITUTO OLGA KOS</name>
	<description>SMPED</description>
	<ExtendedData><SchemaData schemaUrl="#doacoes_entregues">
		<SimpleData name="ENDERECO">RUA HADDOCK LOBO, 1307 - CONJ. 181 - CERQUEIRA C?SAR</SimpleData>
		<SimpleData name="id">14126</SimpleData>
	</SchemaData></ExtendedData>
      <Point><coordinates>-46.6662181,-23.5627949</coordinates></Point>
  </Placemark>
  <Placemark>
	<name>INSTITUTO SIMBORA GENTE</name>
	<description>SMPED</description>
	<ExtendedData><SchemaData schemaUrl="#doacoes_entregues">
		<SimpleData name="ENDERECO">RUA PADRE CARESIA, 126 - JAGUAR?</SimpleData>
		<SimpleData name="id">14151</SimpleData>
	</SchemaData></ExtendedData>
      <Point><coordinates>-46.7463942,-23.5471532</coordinates></Point>
  </Placemark>
  <Placemark>
	<name>APAJE - Associa??o de Pais Diretos e Indiretos do Tribunal de Justi?a do Estado de S?o Paulo</name>
	<description>SMPED</description>
	<ExtendedData><SchemaData schemaUrl="#doacoes_entregues">
		<SimpleData name="ENDERECO">Rua Est?v?o Montebello, 556 - Freguesia do ?</SimpleData>
		<SimpleData name="id">14170</SimpleData>
	</SchemaData></ExtendedData>
      <Point><coordinates>-46.7046452,-23.4888396</coordinates></Point>
  </Placemark>
  <Placemark>
	<name>ASSOCIA??O SEMPRE JUNTOS</name>
	<description>SMPED</description>
	<ExtendedData><SchemaData schemaUrl="#doacoes_entregues">
		<SimpleData name="ENDERECO">RUA SABIA LARANJEIRA, 758 - S?O MIGUEL PAULISTA</SimpleData>
		<SimpleData name="id">14145</SimpleData>
	</SchemaData></ExtendedData>
      <Point><coordinates>-46.4206326,-23.4845956</coordinates></Point>
  </Placemark>
  <Placemark>
	<name>INSTITUTO DE CEGOS PADRE CHICO</name>
	<description>SMPED</description>
	<ExtendedData><SchemaData schemaUrl="#doacoes_entregues">
		<SimpleData name="ENDERECO">Rua Moreira de Godoi, 456 - Ipiranga</SimpleData>
		<SimpleData name="id">14184</SimpleData>
	</SchemaData></ExtendedData>
      <Point><coordinates>-46.6093104,-23.5921881</coordinates></Point>
  </Placemark>
  <Placemark>
	<name>ASSOCIA??O DE MORADORES DA VILA SANTO HENRIQUE</name>
	<description>SMPED</description>
	<ExtendedData><SchemaData schemaUrl="#doacoes_entregues">
		<SimpleData name="ENDERECO">RUA CUREMA, 661 - VILA SANTO HENRIQUE</SimpleData>
		<SimpleData name="id">14190</SimpleData>
	</SchemaData></ExtendedData>
      <Point><coordinates>-46.542355,-23.5060427</coordinates></Point>
  </Placemark>
  <Placemark>
	<name>ASSOCIA??O NOVA PROJETO EDUCA??O E TRABALHO PARA PESSOA ESPECIAL</name>
	<description>SMPED</description>
	<ExtendedData><SchemaData schemaUrl="#doacoes_entregues">
		<SimpleData name="ENDERECO">Rua Texas, 1074 - Brooklin</SimpleData>
		<SimpleData name="id">14182</SimpleData>
	</SchemaData></ExtendedData>
      <Point><coordinates>-46.6847008,-23.6022679</coordinates></Point>
  </Placemark>
  <Placemark>
	<name>ASSOCIA??O LIDER S?O SEBASTI?O</name>
	<description>SMPED</description>
	<ExtendedData><SchemaData schemaUrl="#doacoes_entregues">
		<SimpleData name="ENDERECO">RUA AFONSO PORTO, 142 - ARTUR ALVIM</SimpleData>
		<SimpleData name="id">14187</SimpleData>
	</SchemaData></ExtendedData>
      <Point><coordinates>-46.4893184,-23.5369357</coordinates></Point>
  </Placemark>
  <Placemark>
	<name>ASSOCIA??O COMUNIT?RIA VASCONCELOS BARROS</name>
	<description>SMPED</description>
	<ExtendedData><SchemaData schemaUrl="#doacoes_entregues">
		<SimpleData name="ENDERECO">RUA CARVALHO ARAUJO, 6 - JARDIM BELCITO</SimpleData>
		<SimpleData name="id">14210</SimpleData>
	</SchemaData></ExtendedData>
      <Point><coordinates>-46.6860616,-23.7644735</coordinates></Point>
  </Placemark>
  <Placemark>
	<name>Associa??o de Surdos do Estado de SP - Vem Sonhar</name>
	<description>SMPED</description>
	<ExtendedData><SchemaData schemaUrl="#doacoes_entregues">
		<SimpleData name="ENDERECO">Rua Monsenhor Bas?lio Pereira, 115 04343-090 - Jabaquara - S?o Paulo/SP</SimpleData>
		<SimpleData name="id">14138</SimpleData>
	</SchemaData></ExtendedData>
      <Point><coordinates>-46.6476169,-23.6358344</coordinates></Point>
  </Placemark>
  <Placemark>
	<name>ASSOCIA??O SUI?O BRASILEIRA DE AJUDA ? CRIAN?A - BRASCRI</name>
	<description>SMPED</description>
	<ExtendedData><SchemaData schemaUrl="#doacoes_entregues">
		<SimpleData name="ENDERECO">Rua Doutor Armando da Silva Prado, 191 - Jardim B?lgica</SimpleData>
		<SimpleData name="id">14211</SimpleData>
	</SchemaData></ExtendedData>
      <Point><coordinates>-46.698177,-23.661351</coordinates></Point>
  </Placemark>
  <Placemark>
	<name>ASSOCIA??O DE DEFICIENTES VISUAIS E AMIGOS - ADEVA</name>
	<description>SMPED</description>
	<ExtendedData><SchemaData schemaUrl="#doacoes_entregues">
		<SimpleData name="ENDERECO">Rua S?o Samuel, 174 - Vila Mariana</SimpleData>
		<SimpleData name="id">14212</SimpleData>
	</SchemaData></ExtendedData>
      <Point><coordinates>-46.6337357,-23.5951525</coordinates></Point>
  </Placemark>
  <Placemark>
	<name>AOSSC ? Associa??o Obras Sociais Santa Cruz ? Recanto Nossa Senhora de Lourdes - S?o Luis Guanella - unidade Educacional (CEFAI)</name>
	<description>SMPED</description>
	<ExtendedData><SchemaData schemaUrl="#doacoes_entregues">
		<SimpleData name="ENDERECO">Avenida Luiz Carlos Gentile de Laet, 1736 - Vila Rosa</SimpleData>
		<SimpleData name="id">14213</SimpleData>
	</SchemaData></ExtendedData>
      <Point><coordinates>-46.6333094,-23.5505199</coordinates></Point>
  </Placemark>
  <Placemark>
	<name>NAIS TREMEMB? - S?o Luis Ganella - ASSOCIA??O OBRAS SOCIAIS SANTA CRUZ unidade assistencial</name>
	<description>SMPED</description>
	<ExtendedData><SchemaData schemaUrl="#doacoes_entregues">
		<SimpleData name="ENDERECO">Avenida Luiz Carlos Gentile de Laet, 1736 - Vila Rosa</SimpleData>
		<SimpleData name="id">14214</SimpleData>
	</SchemaData></ExtendedData>
      <Point><coordinates>-46.6333094,-23.5505199</coordinates></Point>
  </Placemark>
  <Placemark>
	<name>CASA DA VOV?</name>
	<description>SMPED</description>
	<ExtendedData><SchemaData schemaUrl="#doacoes_entregues">
		<SimpleData name="ENDERECO">Rua Raul Lino, 34 - Jardim S?o Bento Novo</SimpleData>
		<SimpleData name="id">14215</SimpleData>
	</SchemaData></ExtendedData>
      <Point><coordinates>-46.6333094,-23.5505199</coordinates></Point>
  </Placemark>
  <Placemark>
	<name>DERDIC</name>
	<description>SMPED</description>
	<ExtendedData><SchemaData schemaUrl="#doacoes_entregues">
		<SimpleData name="ENDERECO">Rua Dra. Neide Aparecida solito, 435 - Vila Clementino</SimpleData>
		<SimpleData name="id">14148</SimpleData>
	</SchemaData></ExtendedData>
      <Point><coordinates>-46.6499386,-23.5930426</coordinates></Point>
  </Placemark>
  <Placemark>
	<name>ABSW - ASSOCIA??O BRASILEIRA DE S?NDROME DE WILLIAMS</name>
	<description>SMPED</description>
	<ExtendedData><SchemaData schemaUrl="#doacoes_entregues">
		<SimpleData name="ENDERECO">Rua Conde de Iraj?, 184 - Vila Mariana</SimpleData>
		<SimpleData name="id">14166</SimpleData>
	</SchemaData></ExtendedData>
      <Point><coordinates>-46.6334666,-23.5920357</coordinates></Point>
  </Placemark>
  <Placemark>
	<name>ASSOCIA??O CRUZ VERDE</name>
	<description>SMPED</description>
	<ExtendedData><SchemaData schemaUrl="#doacoes_entregues">
		<SimpleData name="ENDERECO">Rua Dr. Diogo de Faria, 695 - Vl. Clementino</SimpleData>
		<SimpleData name="id">14216</SimpleData>
	</SchemaData></ExtendedData>
      <Point><coordinates>-46.6433881,-23.5959874</coordinates></Point>
  </Placemark>
  <Placemark>
	<name>ABADS - ASSOCIA??O BRASILEIRA DE ASSIST?NCIA E DESENVOLVIMENTO SOCIAL</name>
	<description>SMPED</description>
	<ExtendedData><SchemaData schemaUrl="#doacoes_entregues">
		<SimpleData name="ENDERECO">Avenida Morvan Dias de Figueiredo, 2.801 - Vila Guilherme</SimpleData>
		<SimpleData name="id">14164</SimpleData>
	</SchemaData></ExtendedData>
      <Point><coordinates>-46.602889,-23.5218123</coordinates></Point>
  </Placemark>
  <Placemark>
	<name>PROGRAMA INSERIR</name>
	<description>SMPED</description>
	<ExtendedData><SchemaData schemaUrl="#doacoes_entregues">
		<SimpleData name="ENDERECO">Rua Major Maragliano, 241 - Vila Mariana</SimpleData>
		<SimpleData name="id">14199</SimpleData>
	</SchemaData></ExtendedData>
      <Point><coordinates>-46.6383369,-23.5883429</coordinates></Point>
  </Placemark>
  <Placemark>
	<name>ABEM Associa??o Brasileira de Esclerose M?ltipla</name>
	<description>SMPED</description>
	<ExtendedData><SchemaData schemaUrl="#doacoes_entregues">
		<SimpleData name="ENDERECO">Av. Indian?polis, 2752</SimpleData>
		<SimpleData name="id">14217</SimpleData>
	</SchemaData></ExtendedData>
      <Point><coordinates>-46.6471139,-23.6222318</coordinates></Point>
  </Placemark>
  <Placemark>
	<name>ASSOCIA??O SEMPRE JUNTOS</name>
	<description>SMPED</description>
	<ExtendedData><SchemaData schemaUrl="#doacoes_entregues">
		<SimpleData name="ENDERECO">RUA SABIA LARANJEIRA, 758 - S?O MIGUEL PAULISTA</SimpleData>
		<SimpleData name="id">14145</SimpleData>
	</SchemaData></ExtendedData>
      <Point><coordinates>-46.4206326,-23.4845956</coordinates></Point>
  </Placemark>
  <Placemark>
	<name>INSTITUTO DE CEGOS PADRE CHICO</name>
	<description>SMPED</description>
	<ExtendedData><SchemaData schemaUrl="#doacoes_entregues">
		<SimpleData name="ENDERECO">Rua Moreira de Godoi, 456 - Ipiranga</SimpleData>
		<SimpleData name="id">14184</SimpleData>
	</SchemaData></ExtendedData>
      <Point><coordinates>-46.6093104,-23.5921881</coordinates></Point>
  </Placemark>
  <Placemark>
	<name>Associa??o Lares de inclus?o Social</name>
	<description>SMPED</description>
	<ExtendedData><SchemaData schemaUrl="#doacoes_entregues">
		<SimpleData name="ENDERECO">Avenida Bar?o do Rego Barros, 179 - Campo Belo.</SimpleData>
		<SimpleData name="id">14218</SimpleData>
	</SchemaData></ExtendedData>
      <Point><coordinates>-46.6639062,-23.6211043</coordinates></Point>
  </Placemark>
  <Placemark>
	<name>ASSOCIA??O BRASILEIRA DE EPILEPSIA</name>
	<description>SMPED</description>
	<ExtendedData><SchemaData schemaUrl="#doacoes_entregues">
		<SimpleData name="ENDERECO">Rua dos Junquilhos, 480 - Vila Alpina</SimpleData>
		<SimpleData name="id">14168</SimpleData>
	</SchemaData></ExtendedData>
      <Point><coordinates>-46.5606377,-23.5965245</coordinates></Point>
  </Placemark>
  <Placemark>
	<name>ASSOCIA??O LIDER S?O SEBASTI?O</name>
	<description>SMPED</description>
	<ExtendedData><SchemaData schemaUrl="#doacoes_entregues">
		<SimpleData name="ENDERECO">RUA AFONSO PORTO, 142 - ARTUR ALVIM</SimpleData>
		<SimpleData name="id">14187</SimpleData>
	</SchemaData></ExtendedData>
      <Point><coordinates>-46.4893184,-23.5369357</coordinates></Point>
  </Placemark>
  <Placemark>
	<name>ASSOCIA??O COMUNIT?RIA VASCONCELOS BARROS</name>
	<description>SMPED</description>
	<ExtendedData><SchemaData schemaUrl="#doacoes_entregues">
		<SimpleData name="ENDERECO">RUA CARVALHO ARAUJO, 6 - JARDIM BELCITO</SimpleData>
		<SimpleData name="id">14210</SimpleData>
	</SchemaData></ExtendedData>
      <Point><coordinates>-46.6860616,-23.7644735</coordinates></Point>
  </Placemark>
  <Placemark>
	<name>Instituto Escuta</name>
	<description>SMPED</description>
	<ExtendedData><SchemaData schemaUrl="#doacoes_entregues">
		<SimpleData name="ENDERECO">Rua Conde de Iraj?, 131</SimpleData>
		<SimpleData name="id">14157</SimpleData>
	</SchemaData></ExtendedData>
      <Point><coordinates>-46.6340418,-23.5914026</coordinates></Point>
  </Placemark>
  <Placemark>
	<name>ADEFAV- Centro de Refer?ncia nas ?reas da Surdocegueira, Defici?ncia M?ltipla e Defici?ncia Visual</name>
	<ExtendedData><SchemaData schemaUrl="#doacoes_entregues">
		<SimpleData name="ENDERECO">Rua Clemente Pereira, 286 - Ipiranga</SimpleData>
		<SimpleData name="id">14158</SimpleData>
	</SchemaData></ExtendedData>
      <Point><coordinates>-46.6025613,-23.5984489</coordinates></Point>
  </Placemark>
  <Placemark>
	<name>ILPI - Institui??o de Longa Permanencia para Idosos S?o Mateus</name>
	<description>SMPED</description>
	<ExtendedData><SchemaData schemaUrl="#doacoes_entregues">
		<SimpleData name="ENDERECO">Avenida Satelite, 298/308 - Cidade Satelite Santa Barbara</SimpleData>
		<SimpleData name="id">14159</SimpleData>
	</SchemaData></ExtendedData>
      <Point><coordinates>-46.4675275,-23.6125518</coordinates></Point>
  </Placemark>
  <Placemark>
	<name>ASSOCIA??O BENEFICENTE COMUNIT?RIA EDUCAR PARA VIDA</name>
	<description>SMPED</description>
	<ExtendedData><SchemaData schemaUrl="#doacoes_entregues">
		<SimpleData name="ENDERECO">RUA IRARA, 255 - CIDADE ANT?NIO ESTEVAO DE CARVALHO</SimpleData>
		<SimpleData name="id">14161</SimpleData>
	</SchemaData></ExtendedData>
      <Point><coordinates>-46.4734681,-23.5379141</coordinates></Point>
  </Placemark>
  <Placemark>
	<name>ASSOCIA??O PARADESPORTIVA JR-SP</name>
	<description>SMPED</description>
	<ExtendedData><SchemaData schemaUrl="#doacoes_entregues">
		<SimpleData name="ENDERECO">Avenida Fagundes Filho, 596 - Apto 113 - Vila Monte Alegre</SimpleData>
		<SimpleData name="id">14183</SimpleData>
	</SchemaData></ExtendedData>
      <Point><coordinates>-46.6357312,-23.6273346</coordinates></Point>
  </Placemark>
  <Placemark>
	<name>ASSOCIA??O DE MORADORES DA VILA SANTO HENRIQUE</name>
	<description>SMPED</description>
	<ExtendedData><SchemaData schemaUrl="#doacoes_entregues">
		<SimpleData name="ENDERECO">RUA CUREMA, 661 - VILA SANTO HENRIQUE</SimpleData>
		<SimpleData name="id">14190</SimpleData>
	</SchemaData></ExtendedData>
      <Point><coordinates>-46.542355,-23.5060427</coordinates></Point>
  </Placemark>
  <Placemark>
	<name>Instituto Mais Convivio</name>
	<description>SMPED</description>
	<ExtendedData><SchemaData schemaUrl="#doacoes_entregues">
		<SimpleData name="ENDERECO">Rua Palmeira de Leque, 66 - Jardim Pedro Jos? Nunes</SimpleData>
		<SimpleData name="id">14219</SimpleData>
	</SchemaData></ExtendedData>
      <Point><coordinates>-46.4695518,-23.5012219</coordinates></Point>
  </Placemark>
  <Placemark>
	<name>Associa??o Comunitaria Dos Moradores Da Cidade Kemel Itaim Paulista E Ajacencias</name>
	<description>SMPED</description>
	<ExtendedData><SchemaData schemaUrl="#doacoes_entregues">
		<SimpleData name="ENDERECO">Rua Desembargador Pedro Augusto do Amaral 103</SimpleData>
		<SimpleData name="id">14220</SimpleData>
	</SchemaData></ExtendedData>
      <Point><coordinates>-46.3687627,-23.5032659</coordinates></Point>
  </Placemark>
  <Placemark>
	<name>LARAMARA - PROCEJA</name>
	<description>SMPED</description>
	<ExtendedData><SchemaData schemaUrl="#doacoes_entregues">
		<SimpleData name="ENDERECO">Rua Cons. Brotero, 338 (Barra Funda)</SimpleData>
		<SimpleData name="id">14108</SimpleData>
	</SchemaData></ExtendedData>
      <Point><coordinates>-46.6571407,-23.5299732</coordinates></Point>
  </Placemark>
  <Placemark>
	<name>Grupo Brasil de Apoio ao Surdocego e ao M?ltiplo Deficiente Sensorial</name>
	<description>SMPED</description>
	<ExtendedData><SchemaData schemaUrl="#doacoes_entregues">
		<SimpleData name="ENDERECO">Rua Baltazar Lisboa n? 180 - Vila Mariana</SimpleData>
		<SimpleData name="id">14141</SimpleData>
	</SchemaData></ExtendedData>
      <Point><coordinates>-46.6333241,-23.5858338</coordinates></Point>
  </Placemark>
  <Placemark>
	<name>Ahimsa Associa??o Educacional para M?ltipla Defici?ncia</name>
	<description>SMPED</description>
	<ExtendedData><SchemaData schemaUrl="#doacoes_entregues">
		<SimpleData name="ENDERECO">Rua Baltazar Lisboa n? 202.212.216 - Vila Mariana</SimpleData>
		<SimpleData name="id">14142</SimpleData>
	</SchemaData></ExtendedData>
      <Point><coordinates>-46.6331569,-23.5857491</coordinates></Point>
  </Placemark>
  <Placemark>
	<name>Associa??o Batista da Penha</name>
	<description>SMPED</description>
	<ExtendedData><SchemaData schemaUrl="#doacoes_entregues">
		<SimpleData name="ENDERECO">Avenida Gabriela Mistral, 635 ? Penha</SimpleData>
		<SimpleData name="id">14174</SimpleData>
	</SchemaData></ExtendedData>
      <Point><coordinates>-46.5504034,-23.5156172</coordinates></Point>
  </Placemark>
  <Placemark>
	<name>Associa??o de amigos dos Excepcionais do Brooklin</name>
	<description>SMPED</description>
	<ExtendedData><SchemaData schemaUrl="#doacoes_entregues">
		<SimpleData name="ENDERECO">Rua Baetinga, 99 - Brooklin</SimpleData>
		<SimpleData name="id">14153</SimpleData>
	</SchemaData></ExtendedData>
      <Point><coordinates>-46.6798508,-23.605038</coordinates></Point>
  </Placemark>
  <Placemark>
	<name>INSTITUTO DE ARTES E EDUCA??O DE RODAS PARA O AR</name>
	<description>SMPED</description>
	<ExtendedData><SchemaData schemaUrl="#doacoes_entregues">
		<SimpleData name="ENDERECO">Rua Ven?ncio Aires, 793, casa 3 - Vila Pomp?ia</SimpleData>
		<SimpleData name="id">14160</SimpleData>
	</SchemaData></ExtendedData>
      <Point><coordinates>-46.684817,-23.5266349</coordinates></Point>
  </Placemark>
  <Placemark>
	<name>ADID - Associa??o para o Desenvolvimento integral do Down</name>
	<description>SMPED</description>
	<ExtendedData><SchemaData schemaUrl="#doacoes_entregues">
		<SimpleData name="ENDERECO">Rua Guararapes, 864 -Brooklin</SimpleData>
		<SimpleData name="id">14171</SimpleData>
	</SchemaData></ExtendedData>
      <Point><coordinates>-46.6850582,-23.6086072</coordinates></Point>
  </Placemark>
  <Placemark>
	<name>Associa??o Nego Nag?</name>
	<description>SMPED</description>
	<ExtendedData><SchemaData schemaUrl="#doacoes_entregues">
		<SimpleData name="ENDERECO">Rua Flor de ?ndio 89 - S?o Miguel Paulista</SimpleData>
		<SimpleData name="id">14172</SimpleData>
	</SchemaData></ExtendedData>
      <Point><coordinates>-46.4610535,-23.5004557</coordinates></Point>
  </Placemark>
  <Placemark>
	<name>RESID?NCIA INCLUSIVA S?O MATEUS II - ASSOCIA??O COMUNIT?RIA E BENEFICENTE PADRE JOS? AUGUSTO MACHADO (CASA 2)</name>
	<description>SMPED</description>
	<ExtendedData><SchemaData schemaUrl="#doacoes_entregues">
		<SimpleData name="ENDERECO">Rua Carlos Vivaldi, 575- S?o Mateus</SimpleData>
		<SimpleData name="id">14197</SimpleData>
	</SchemaData></ExtendedData>
      <Point><coordinates>-46.480681,-23.6039201</coordinates></Point>
  </Placemark>
  <Placemark>
	<name>Instituto Mara Gabrilli</name>
	<description>SMPED</description>
	<ExtendedData><SchemaData schemaUrl="#doacoes_entregues">
		<SimpleData name="ENDERECO">Rua Otto Barros, 445, VI Santo Stefano, S?o Paulo.</SimpleData>
		<SimpleData name="id">14125</SimpleData>
	</SchemaData></ExtendedData>
      <Point><coordinates>-46.6262393,-23.6261721</coordinates></Point>
  </Placemark>
  <Placemark>
	<name>RESID?NCIA INCLUSIVA S?O MATEUS II - ASSOCIA??O COMUNIT?RIA E BENEFICENTE PADRE JOS? AUGUSTO MACHADO</name>
	<description>SMPED</description>
	<ExtendedData><SchemaData schemaUrl="#doacoes_entregues">
		<SimpleData name="ENDERECO">RUA EMBAIXADOR ILDEFONSO FALC?O, 90 - CIDADE S?O MATEUS</SimpleData>
		<SimpleData name="id">14162</SimpleData>
	</SchemaData></ExtendedData>
      <Point><coordinates>-46.4767162,-23.6075692</coordinates></Point>
  </Placemark>
  <Placemark>
	<name>ASSOCIA??O MESSAGESOUL</name>
	<description>SMPED</description>
	<ExtendedData><SchemaData schemaUrl="#doacoes_entregues">
		<SimpleData name="ENDERECO">Rua Arroio Chui 176 -S?o Miguel Paulista</SimpleData>
		<SimpleData name="id">14176</SimpleData>
	</SchemaData></ExtendedData>
      <Point><coordinates>-46.4238196,-23.4917971</coordinates></Point>
  </Placemark>
  <Placemark>
	<name>INSTITUTO CONTEMPLO - EDUCA??O, SA?DE E LOGEVIDADE</name>
	<description>SMPED</description>
	<ExtendedData><SchemaData schemaUrl="#doacoes_entregues">
		<SimpleData name="ENDERECO">RUA DOMINGOS SIM?ES, 90 - VILA SUZANO</SimpleData>
		<SimpleData name="id">14185</SimpleData>
	</SchemaData></ExtendedData>
      <Point><coordinates>-46.7368479,-23.6083523</coordinates></Point>
  </Placemark>
  <Placemark>
	<name>LADO B DA VILA</name>
	<description>SMPED</description>
	<ExtendedData><SchemaData schemaUrl="#doacoes_entregues">
		<SimpleData name="ENDERECO">RUA ROD?SIA, 234 - SUMAREZINHO</SimpleData>
		<SimpleData name="id">14191</SimpleData>
	</SchemaData></ExtendedData>
      <Point><coordinates>-46.6912291,-23.5514022</coordinates></Point>
  </Placemark>
  <Placemark>
	<name>ASSOCIA??O DOS AMIGOS DA CRIAN?A AUTISTA - AUMA</name>
	<description>SMPED</description>
	<ExtendedData><SchemaData schemaUrl="#doacoes_entregues">
		<SimpleData name="ENDERECO">Rua C?sar Zama, 257 - Mandaqui</SimpleData>
		<SimpleData name="id">14201</SimpleData>
	</SchemaData></ExtendedData>
      <Point><coordinates>-46.6287503,-23.4873173</coordinates></Point>
  </Placemark>
  <Placemark>
	<name>ADID - Associa??o para o Desenvolvimento integral do Down</name>
	<description>SMPED</description>
	<ExtendedData><SchemaData schemaUrl="#doacoes_entregues">
		<SimpleData name="ENDERECO">Rua Guararapes, 864 -Brooklin</SimpleData>
		<SimpleData name="id">14171</SimpleData>
	</SchemaData></ExtendedData>
      <Point><coordinates>-46.6850582,-23.6086072</coordinates></Point>
  </Placemark>
  <Placemark>
	<name>ASSOCIA??O PROJETO BATUTINHAS E ADJAC?NCIAS</name>
	<description>SMPED</description>
	<ExtendedData><SchemaData schemaUrl="#doacoes_entregues">
		<SimpleData name="ENDERECO">Rua Rafael Alvarez, 79 - Vila do Sol</SimpleData>
		<SimpleData name="id">14181</SimpleData>
	</SchemaData></ExtendedData>
      <Point><coordinates>-46.7814555,-23.7367864</coordinates></Point>
  </Placemark>
  <Placemark>
	<name>ASSOCIA??O NOVA PROJETO EDUCA??O E TRABALHO PARA PESSOA ESPECIAL</name>
	<description>SMPED</description>
	<ExtendedData><SchemaData schemaUrl="#doacoes_entregues">
		<SimpleData name="ENDERECO">Rua Texas, 1074 - Brooklin</SimpleData>
		<SimpleData name="id">14182</SimpleData>
	</SchemaData></ExtendedData>
      <Point><coordinates>-46.6847008,-23.6022679</coordinates></Point>
  </Placemark>
  <Placemark>
	<name>Associa??o de Surdos do Estado de SP - Vem Sonhar</name>
	<description>SMPED</description>
	<ExtendedData><SchemaData schemaUrl="#doacoes_entregues">
		<SimpleData name="ENDERECO">Rua Monsenhor Bas?lio Pereira, 115 04343-090 - Jabaquara - S?o Paulo/SP</SimpleData>
		<SimpleData name="id">14138</SimpleData>
	</SchemaData></ExtendedData>
      <Point><coordinates>-46.6476169,-23.6358344</coordinates></Point>
  </Placemark>
  <Placemark>
	<name>INSTITUTO SIMBORA GENTE</name>
	<description>SMPED</description>
	<ExtendedData><SchemaData schemaUrl="#doacoes_entregues">
		<SimpleData name="ENDERECO">RUA PADRE CARESIA, 126 - JAGUAR?</SimpleData>
		<SimpleData name="id">14151</SimpleData>
	</SchemaData></ExtendedData>
      <Point><coordinates>-46.7463942,-23.5471532</coordinates></Point>
  </Placemark>
  <Placemark>
	<name>INSTITUTO MATER DEI DAS PEQUENAS IRM?S MISSION?RIAS</name>
	<description>SMPED</description>
	<ExtendedData><SchemaData schemaUrl="#doacoes_entregues">
		<SimpleData name="ENDERECO">AVENIDA LUIZ PIRES DE MINAS, 716 - JARDIM IMPERADOR</SimpleData>
		<SimpleData name="id">14194</SimpleData>
	</SchemaData></ExtendedData>
      <Point><coordinates>-46.5003482,-23.5884156</coordinates></Point>
  </Placemark>
  <Placemark>
	<name>CIAM - Centro Israelita de Apoio Multidiciplinar</name>
	<description>SMPED</description>
	<ExtendedData><SchemaData schemaUrl="#doacoes_entregues">
		<SimpleData name="ENDERECO">Rua Irma Pia, 78 - Jaguar?.</SimpleData>
		<SimpleData name="id">14221</SimpleData>
	</SchemaData></ExtendedData>
      <Point><coordinates>-46.7514395,-23.5485037</coordinates></Point>
  </Placemark>
  <Placemark>
	<name>ASSOCIA??O PR?-EXCEPCIONAIS KODOMO NO SONO</name>
	<description>SMPED</description>
	<ExtendedData><SchemaData schemaUrl="#doacoes_entregues">
		<SimpleData name="ENDERECO">Rua Prof. Hassegawa, 1198 - CP 250 Itaquera - S?o Paulo - SP CEP 08260-090 Telefone:  11 2521-6437/ 2521-8369</SimpleData>
		<SimpleData name="id">14116</SimpleData>
	</SchemaData></ExtendedData>
      <Point><coordinates>-46.4281147,-23.566241</coordinates></Point>
  </Placemark>
  <Placemark>
	<name>Associa??o Cantareira</name>
	<description>SMPED</description>
	<ExtendedData><SchemaData schemaUrl="#doacoes_entregues">
		<SimpleData name="ENDERECO">Rua Jorge Pires Ramalho 71 - Vila Isabel</SimpleData>
		<SimpleData name="id">14222</SimpleData>
	</SchemaData></ExtendedData>
      <Point><coordinates>-46.6992685,-23.4607836</coordinates></Point>
  </Placemark>
  <Placemark>
	<name>RAINHA DA RECICLAGEM</name>
	<description>AMLURB</description>
	<ExtendedData><SchemaData schemaUrl="#doacoes_entregues">
		<SimpleData name="ENDERECO">RUA JAPICHAUA, 596 - JARDIM MATARAZZO</SimpleData>
		<SimpleData name="id">15103</SimpleData>
	</SchemaData></ExtendedData>
      <Point><coordinates>-46.4665663,-23.4833288</coordinates></Point>
  </Placemark>
  <Placemark>
	<name>CRESCER</name>
	<description>AMLURB</description>
	<ExtendedData><SchemaData schemaUrl="#doacoes_entregues">
		<SimpleData name="ENDERECO">Rua Marina Ciufuli Zanfelice, 289 - Lapa</SimpleData>
		<SimpleData name="id">15104</SimpleData>
	</SchemaData></ExtendedData>
      <Point><coordinates>-46.7072404,-23.5133127</coordinates></Point>
  </Placemark>
  <Placemark>
	<name>OCUPA??O FERN?O DIAS</name>
	<description>SMDU</description>
	<ExtendedData><SchemaData schemaUrl="#doacoes_entregues">
		<SimpleData name="ENDERECO">RUA RENATO SERRA - JARDIM JULIANA</SimpleData>
		<SimpleData name="id">18145</SimpleData>
	</SchemaData></ExtendedData>
      <Point><coordinates>-46.5635058,-23.4879265</coordinates></Point>
  </Placemark>
  <Placemark>
	<name>Liga de Futebol Amador de S?o Mateus</name>
	<description>SMDU</description>
	<ExtendedData><SchemaData schemaUrl="#doacoes_entregues">
		<SimpleData name="ENDERECO">Rua Ministro Luiz Esparano, 309, Jardim Santa Adelia</SimpleData>
		<SimpleData name="id">18146</SimpleData>
	</SchemaData></ExtendedData>
      <Point><coordinates>-46.4803983,-23.6140464</coordinates></Point>
  </Placemark>